{
  "updated_at": "2026-07-12",
  "source": "seoul_open_api",
  "note": "수도권 실데이터 — 서울 761개·경기 0개 구역 (2026-07-12 갱신)",
  "projects": [
    {
      "id": "api_24",
      "name": "전농7재정비촉진구역 ",
      "region": "서울",
      "district": "동대문구",
      "dong": "",
      "type": "재개발",
      "stage": "주택재개발사업구역",
      "stage_idx": 0,
      "lat": 37.569787357498264,
      "lng": 127.0330293519039,
      "area_m2": 151792,
      "units": 0,
      "contractor": "",
      "stage_date": "",
      "notes": "",
      "subway": "",
      "hangang": false,
      "completion_est": "",
      "ref_note": ""
    },
    {
      "id": "api_25",
      "name": "공덕 제6주택재개발정비사업",
      "region": "서울",
      "district": "마포구",
      "dong": "",
      "type": "재개발",
      "stage": "주택재개발사업구역",
      "stage_idx": 0,
      "lat": 37.5651902997532,
      "lng": 126.90635649276531,
      "area_m2": 11326,
      "units": 0,
      "contractor": "",
      "stage_date": "",
      "notes": "",
      "subway": "",
      "hangang": false,
      "completion_est": "",
      "ref_note": ""
    },
    {
      "id": "api_26",
      "name": "사당3재건축정비사업",
      "region": "서울",
      "district": "동작구",
      "dong": "",
      "type": "재건축",
      "stage": "주택재건축사업",
      "stage_idx": 0,
      "lat": 37.505723185071744,
      "lng": 126.94612885079331,
      "area_m2": 30221,
      "units": 0,
      "contractor": "",
      "stage_date": "",
      "notes": "",
      "subway": "",
      "hangang": false,
      "completion_est": "",
      "ref_note": ""
    },
    {
      "id": "api_27",
      "name": "긴등마을 재정비촉진구역",
      "region": "서울",
      "district": "강서구",
      "dong": "",
      "type": "재개발",
      "stage": "주택재건축사업",
      "stage_idx": 0,
      "lat": 37.54295205186602,
      "lng": 126.85258700896885,
      "area_m2": 31668,
      "units": 0,
      "contractor": "",
      "stage_date": "",
      "notes": "",
      "subway": "",
      "hangang": false,
      "completion_est": "",
      "ref_note": ""
    },
    {
      "id": "api_29",
      "name": "신용산역 북측 제1구역 도시정비형 재개발구역",
      "region": "서울",
      "district": "용산구",
      "dong": "",
      "type": "재개발",
      "stage": "도시환경정비사업구역",
      "stage_idx": 0,
      "lat": 37.52891609501182,
      "lng": 126.98811496907679,
      "area_m2": 14057,
      "units": 0,
      "contractor": "",
      "stage_date": "",
      "notes": "",
      "subway": "",
      "hangang": false,
      "completion_est": "",
      "ref_note": ""
    },
    {
      "id": "api_30",
      "name": "신설 제1 주택정비형 공공재개발사업 ",
      "region": "서울",
      "district": "동대문구",
      "dong": "",
      "type": "재개발",
      "stage": "주택재개발사업구역",
      "stage_idx": 0,
      "lat": 37.5788405321395,
      "lng": 127.04509691783772,
      "area_m2": 11204,
      "units": 0,
      "contractor": "",
      "stage_date": "",
      "notes": "",
      "subway": "",
      "hangang": false,
      "completion_est": "",
      "ref_note": ""
    },
    {
      "id": "api_31",
      "name": "양동구역 제11.12지구",
      "region": "서울",
      "district": "중구",
      "dong": "",
      "type": "재개발",
      "stage": "도시환경정비사업지구",
      "stage_idx": 0,
      "lat": 37.5657537544605,
      "lng": 126.98907376643025,
      "area_m2": 3565,
      "units": 0,
      "contractor": "",
      "stage_date": "",
      "notes": "",
      "subway": "",
      "hangang": false,
      "completion_est": "",
      "ref_note": ""
    },
    {
      "id": "api_32",
      "name": "신당 제8구역 주택재개발정비사업",
      "region": "서울",
      "district": "중구",
      "dong": "",
      "type": "재개발",
      "stage": "주택재개발사업구역",
      "stage_idx": 0,
      "lat": 37.5712363765137,
      "lng": 126.99988374104899,
      "area_m2": 58439,
      "units": 0,
      "contractor": "",
      "stage_date": "",
      "notes": "",
      "subway": "",
      "hangang": false,
      "completion_est": "",
      "ref_note": ""
    },
    {
      "id": "api_33",
      "name": "장위6구역 ",
      "region": "서울",
      "district": "성북구",
      "dong": "",
      "type": "재개발",
      "stage": "주택재개발사업구역",
      "stage_idx": 0,
      "lat": 37.59548641996848,
      "lng": 127.02142328641418,
      "area_m2": 105163,
      "units": 0,
      "contractor": "",
      "stage_date": "",
      "notes": "",
      "subway": "",
      "hangang": false,
      "completion_est": "",
      "ref_note": ""
    },
    {
      "id": "api_34",
      "name": "한남4 재정비촉진구역 ",
      "region": "서울",
      "district": "용산구",
      "dong": "",
      "type": "재개발",
      "stage": "주택재개발사업구역",
      "stage_idx": 0,
      "lat": 37.52770974537053,
      "lng": 126.97064305667385,
      "area_m2": 162163,
      "units": 0,
      "contractor": "",
      "stage_date": "",
      "notes": "",
      "subway": "",
      "hangang": false,
      "completion_est": "",
      "ref_note": ""
    },
    {
      "id": "api_35",
      "name": "마포로5 도시정비형 재개발구역",
      "region": "서울",
      "district": "중구",
      "dong": "",
      "type": "재개발",
      "stage": "도시환경정비사업구역",
      "stage_idx": 0,
      "lat": 37.56779617682191,
      "lng": 126.99538869634242,
      "area_m2": 61730,
      "units": 0,
      "contractor": "",
      "stage_date": "",
      "notes": "",
      "subway": "",
      "hangang": false,
      "completion_est": "",
      "ref_note": ""
    },
    {
      "id": "api_36",
      "name": "마포로5 도시정비형 재개발구역 제9-1지구",
      "region": "서울",
      "district": "중구",
      "dong": "",
      "type": "재개발",
      "stage": "도시환경정비사업구역",
      "stage_idx": 0,
      "lat": 37.570804855312396,
      "lng": 126.99168781015473,
      "area_m2": 1938,
      "units": 0,
      "contractor": "",
      "stage_date": "",
      "notes": "",
      "subway": "",
      "hangang": false,
      "completion_est": "",
      "ref_note": ""
    },
    {
      "id": "api_37",
      "name": "금호 제14-1 주택재개발 정비사업",
      "region": "서울",
      "district": "성동구",
      "dong": "",
      "type": "재개발",
      "stage": "주택재개발사업구역",
      "stage_idx": 0,
      "lat": 37.56237247462032,
      "lng": 127.02858791586418,
      "area_m2": 5127,
      "units": 0,
      "contractor": "",
      "stage_date": "",
      "notes": "",
      "subway": "",
      "hangang": false,
      "completion_est": "",
      "ref_note": ""
    },
    {
      "id": "api_38",
      "name": "은마아파트 재건축 정비구역 ",
      "region": "서울",
      "district": "강남구",
      "dong": "",
      "type": "재건축",
      "stage": "재건축사업구역",
      "stage_idx": 0,
      "lat": 37.51005139870467,
      "lng": 127.04312539669813,
      "area_m2": 0,
      "units": 0,
      "contractor": "",
      "stage_date": "",
      "notes": "",
      "subway": "",
      "hangang": false,
      "completion_est": "",
      "ref_note": ""
    },
    {
      "id": "api_39",
      "name": "양평제12 도시환경정비구역",
      "region": "서울",
      "district": "영등포구",
      "dong": "",
      "type": "재개발",
      "stage": "도시환경정비사업구역",
      "stage_idx": 0,
      "lat": 37.52841280324029,
      "lng": 126.90112580078666,
      "area_m2": 37561,
      "units": 0,
      "contractor": "",
      "stage_date": "",
      "notes": "",
      "subway": "",
      "hangang": false,
      "completion_est": "",
      "ref_note": ""
    },
    {
      "id": "api_42",
      "name": "면목4 주택재건축정비구역",
      "region": "서울",
      "district": "중랑구",
      "dong": "",
      "type": "재건축",
      "stage": "주택재건축사업",
      "stage_idx": 0,
      "lat": 37.61325950505004,
      "lng": 127.09308741417354,
      "area_m2": 14918,
      "units": 0,
      "contractor": "",
      "stage_date": "",
      "notes": "",
      "subway": "",
      "hangang": false,
      "completion_est": "",
      "ref_note": ""
    },
    {
      "id": "api_43",
      "name": "개포주공4단지 주택재건축정비사업",
      "region": "서울",
      "district": "강남구",
      "dong": "",
      "type": "재건축",
      "stage": "주택재건축사업",
      "stage_idx": 0,
      "lat": 37.51353729211857,
      "lng": 127.05448490113737,
      "area_m2": 179794,
      "units": 0,
      "contractor": "",
      "stage_date": "",
      "notes": "",
      "subway": "",
      "hangang": false,
      "completion_est": "",
      "ref_note": ""
    },
    {
      "id": "api_44",
      "name": "잠실우성4차아파트 주택재건축 정비구역",
      "region": "서울",
      "district": "송파구",
      "dong": "",
      "type": "재건축",
      "stage": "주택재건축사업",
      "stage_idx": 0,
      "lat": 37.51303624559628,
      "lng": 127.10572272575666,
      "area_m2": 31961,
      "units": 0,
      "contractor": "",
      "stage_date": "",
      "notes": "",
      "subway": "",
      "hangang": false,
      "completion_est": "",
      "ref_note": ""
    },
    {
      "id": "api_45",
      "name": "홍은제1 주택재건축 정비사업",
      "region": "서울",
      "district": "서대문구",
      "dong": "",
      "type": "재건축",
      "stage": "주택재건축사업",
      "stage_idx": 0,
      "lat": 37.58462698343807,
      "lng": 126.93266572874195,
      "area_m2": 19070,
      "units": 0,
      "contractor": "",
      "stage_date": "",
      "notes": "",
      "subway": "",
      "hangang": false,
      "completion_est": "",
      "ref_note": ""
    },
    {
      "id": "api_47",
      "name": "홍은 제2주택재건축 정비구역",
      "region": "서울",
      "district": "서대문구",
      "dong": "",
      "type": "재건축",
      "stage": "주택재건축사업",
      "stage_idx": 0,
      "lat": 37.58667287826396,
      "lng": 126.93515867641779,
      "area_m2": 33199,
      "units": 0,
      "contractor": "",
      "stage_date": "",
      "notes": "",
      "subway": "",
      "hangang": false,
      "completion_est": "",
      "ref_note": ""
    },
    {
      "id": "api_48",
      "name": "용두제6구역 주택재개발정비사업",
      "region": "서울",
      "district": "동대문구",
      "dong": "",
      "type": "재개발",
      "stage": "주택재개발사업구역",
      "stage_idx": 0,
      "lat": 37.57518745900939,
      "lng": 127.04222126729337,
      "area_m2": 53370,
      "units": 0,
      "contractor": "",
      "stage_date": "",
      "notes": "",
      "subway": "",
      "hangang": false,
      "completion_est": "",
      "ref_note": ""
    },
    {
      "id": "api_49",
      "name": "중화동 우성타운 재건축정비구역 ",
      "region": "서울",
      "district": "중랑구",
      "dong": "",
      "type": "재건축",
      "stage": "재건축사업구역",
      "stage_idx": 0,
      "lat": 37.60249122118891,
      "lng": 127.08956553451087,
      "area_m2": 0,
      "units": 0,
      "contractor": "",
      "stage_date": "",
      "notes": "",
      "subway": "",
      "hangang": false,
      "completion_est": "",
      "ref_note": ""
    },
    {
      "id": "api_50",
      "name": "사당3 재건축정비사업",
      "region": "서울",
      "district": "동작구",
      "dong": "",
      "type": "재건축",
      "stage": "재건축사업구역",
      "stage_idx": 0,
      "lat": 37.50544689223868,
      "lng": 126.93864768917406,
      "area_m2": 30061,
      "units": 0,
      "contractor": "",
      "stage_date": "",
      "notes": "",
      "subway": "",
      "hangang": false,
      "completion_est": "",
      "ref_note": ""
    },
    {
      "id": "api_51",
      "name": "증산2재정비촉진구역",
      "region": "서울",
      "district": "은평구",
      "dong": "",
      "type": "재개발",
      "stage": "주택재개발사업구역",
      "stage_idx": 0,
      "lat": 37.61229296616238,
      "lng": 126.92177807641943,
      "area_m2": 78755,
      "units": 0,
      "contractor": "",
      "stage_date": "",
      "notes": "",
      "subway": "",
      "hangang": false,
      "completion_est": "",
      "ref_note": ""
    },
    {
      "id": "api_52",
      "name": "수색7재정비촉진구역 ",
      "region": "서울",
      "district": "은평구",
      "dong": "",
      "type": "재개발",
      "stage": "주택재개발사업구역",
      "stage_idx": 0,
      "lat": 37.60213403387565,
      "lng": 126.9223016502387,
      "area_m2": 31402,
      "units": 0,
      "contractor": "",
      "stage_date": "",
      "notes": "",
      "subway": "",
      "hangang": false,
      "completion_est": "",
      "ref_note": ""
    },
    {
      "id": "api_53",
      "name": "수색13 주택재개발사업 ",
      "region": "서울",
      "district": "은평구",
      "dong": "",
      "type": "재개발",
      "stage": "주택재개발사업구역",
      "stage_idx": 0,
      "lat": 37.60478896820177,
      "lng": 126.93085540956231,
      "area_m2": 69681,
      "units": 0,
      "contractor": "",
      "stage_date": "",
      "notes": "",
      "subway": "",
      "hangang": false,
      "completion_est": "",
      "ref_note": ""
    },
    {
      "id": "api_54",
      "name": "역삼동 758번지일대 주택재건축정비사업",
      "region": "서울",
      "district": "강남구",
      "dong": "",
      "type": "재건축",
      "stage": "주택재건축사업",
      "stage_idx": 0,
      "lat": 37.509522180492546,
      "lng": 127.03787131898187,
      "area_m2": 12263,
      "units": 0,
      "contractor": "",
      "stage_date": "",
      "notes": "",
      "subway": "",
      "hangang": false,
      "completion_est": "",
      "ref_note": ""
    },
    {
      "id": "api_55",
      "name": "수색9 재정비촉진구역 주택재개발사업 ",
      "region": "서울",
      "district": "은평구",
      "dong": "",
      "type": "재개발",
      "stage": "주택재개발사업구역",
      "stage_idx": 0,
      "lat": 37.61113439800284,
      "lng": 126.93562024560697,
      "area_m2": 36348,
      "units": 0,
      "contractor": "",
      "stage_date": "",
      "notes": "",
      "subway": "",
      "hangang": false,
      "completion_est": "",
      "ref_note": ""
    },
    {
      "id": "api_56",
      "name": "제기1주거환경개선지구",
      "region": "서울",
      "district": "동대문구",
      "dong": "",
      "type": "재개발",
      "stage": "주거환경개선사업",
      "stage_idx": 0,
      "lat": 37.57225954083149,
      "lng": 127.0414275644782,
      "area_m2": 9945,
      "units": 0,
      "contractor": "",
      "stage_date": "",
      "notes": "",
      "subway": "",
      "hangang": false,
      "completion_est": "",
      "ref_note": ""
    },
    {
      "id": "api_60",
      "name": "1-1구역",
      "region": "서울",
      "district": "용산구",
      "dong": "",
      "type": "재개발",
      "stage": "도시환경정비사업구역",
      "stage_idx": 0,
      "lat": 37.53645407835507,
      "lng": 126.97270617710089,
      "area_m2": 2749,
      "units": 0,
      "contractor": "",
      "stage_date": "",
      "notes": "",
      "subway": "",
      "hangang": false,
      "completion_est": "",
      "ref_note": ""
    },
    {
      "id": "api_61",
      "name": "1-2구역",
      "region": "서울",
      "district": "용산구",
      "dong": "",
      "type": "재개발",
      "stage": "도시환경정비사업구역",
      "stage_idx": 0,
      "lat": 37.52623833929504,
      "lng": 126.97816432368965,
      "area_m2": 8527,
      "units": 0,
      "contractor": "",
      "stage_date": "",
      "notes": "",
      "subway": "",
      "hangang": false,
      "completion_est": "",
      "ref_note": ""
    },
    {
      "id": "api_62",
      "name": "2구역",
      "region": "서울",
      "district": "용산구",
      "dong": "",
      "type": "재개발",
      "stage": "도시환경정비사업구역",
      "stage_idx": 0,
      "lat": 37.53614961720416,
      "lng": 126.97674707256164,
      "area_m2": 8705,
      "units": 0,
      "contractor": "",
      "stage_date": "",
      "notes": "",
      "subway": "",
      "hangang": false,
      "completion_est": "",
      "ref_note": ""
    },
    {
      "id": "api_64",
      "name": "강북3 재정비촉진구역",
      "region": "서울",
      "district": "강북구",
      "dong": "",
      "type": "재개발",
      "stage": "도시환경정비사업구역",
      "stage_idx": 0,
      "lat": 37.63042618367176,
      "lng": 127.01882055155905,
      "area_m2": 0,
      "units": 0,
      "contractor": "",
      "stage_date": "",
      "notes": "",
      "subway": "",
      "hangang": false,
      "completion_est": "",
      "ref_note": ""
    },
    {
      "id": "api_65",
      "name": "가락프라자아파트 주택재건축사업",
      "region": "서울",
      "district": "송파구",
      "dong": "",
      "type": "재건축",
      "stage": "주택재건축사업",
      "stage_idx": 0,
      "lat": 37.51955349374537,
      "lng": 127.10869000116547,
      "area_m2": 45808,
      "units": 0,
      "contractor": "",
      "stage_date": "",
      "notes": "",
      "subway": "",
      "hangang": false,
      "completion_est": "",
      "ref_note": ""
    },
    {
      "id": "api_66",
      "name": "길음5재정비촉진구역(주택정비형재개발사업)",
      "region": "서울",
      "district": "성북구",
      "dong": "",
      "type": "재개발",
      "stage": "주택재개발사업구역",
      "stage_idx": 0,
      "lat": 37.597378540707595,
      "lng": 127.01207066937573,
      "area_m2": 35388,
      "units": 0,
      "contractor": "",
      "stage_date": "",
      "notes": "",
      "subway": "",
      "hangang": false,
      "completion_est": "",
      "ref_note": ""
    },
    {
      "id": "api_67",
      "name": "홍은 제2주택재건축 정비구역",
      "region": "서울",
      "district": "서대문구",
      "dong": "",
      "type": "재건축",
      "stage": "주택재건축사업",
      "stage_idx": 0,
      "lat": 37.58489773773141,
      "lng": 126.92775660090848,
      "area_m2": 34387,
      "units": 0,
      "contractor": "",
      "stage_date": "",
      "notes": "",
      "subway": "",
      "hangang": false,
      "completion_est": "",
      "ref_note": ""
    },
    {
      "id": "api_69",
      "name": "고척동 한효아파트 재건축정비구역 ",
      "region": "서울",
      "district": "구로구",
      "dong": "",
      "type": "재건축",
      "stage": "재건축사업구역",
      "stage_idx": 0,
      "lat": 37.48795333636416,
      "lng": 126.89590998342494,
      "area_m2": 0,
      "units": 0,
      "contractor": "",
      "stage_date": "",
      "notes": "",
      "subway": "",
      "hangang": false,
      "completion_est": "",
      "ref_note": ""
    },
    {
      "id": "api_71",
      "name": "3구역",
      "region": "서울",
      "district": "용산구",
      "dong": "",
      "type": "재개발",
      "stage": "도시환경정비사업구역",
      "stage_idx": 0,
      "lat": 37.52541561942672,
      "lng": 126.97961367568793,
      "area_m2": 11961,
      "units": 0,
      "contractor": "",
      "stage_date": "",
      "notes": "",
      "subway": "",
      "hangang": false,
      "completion_est": "",
      "ref_note": ""
    },
    {
      "id": "api_72",
      "name": "노량진5재정비촉진구역",
      "region": "서울",
      "district": "동작구",
      "dong": "",
      "type": "재개발",
      "stage": "주택재개발사업구역",
      "stage_idx": 0,
      "lat": 37.51289286420546,
      "lng": 126.94396482095017,
      "area_m2": 38017,
      "units": 0,
      "contractor": "",
      "stage_date": "",
      "notes": "",
      "subway": "",
      "hangang": false,
      "completion_est": "",
      "ref_note": ""
    },
    {
      "id": "api_73",
      "name": "노량진8재정비촉진구역",
      "region": "서울",
      "district": "동작구",
      "dong": "",
      "type": "재개발",
      "stage": "주택재개발사업구역",
      "stage_idx": 0,
      "lat": 37.51079200815711,
      "lng": 126.9392326126276,
      "area_m2": 55742,
      "units": 0,
      "contractor": "",
      "stage_date": "",
      "notes": "",
      "subway": "",
      "hangang": false,
      "completion_est": "",
      "ref_note": ""
    },
    {
      "id": "api_75",
      "name": "문래동2가A 도시정비형  재개발구역 4지구",
      "region": "서울",
      "district": "영등포구",
      "dong": "",
      "type": "재개발",
      "stage": "도시환경정비사업지구",
      "stage_idx": 0,
      "lat": 37.53591878267997,
      "lng": 126.88964579650728,
      "area_m2": 3214,
      "units": 0,
      "contractor": "",
      "stage_date": "",
      "notes": "",
      "subway": "",
      "hangang": false,
      "completion_est": "",
      "ref_note": ""
    },
    {
      "id": "api_78",
      "name": "마포로3구역",
      "region": "서울",
      "district": "마포구",
      "dong": "",
      "type": "재개발",
      "stage": "도시환경정비사업구역",
      "stage_idx": 0,
      "lat": 37.5658607572885,
      "lng": 126.91206224323663,
      "area_m2": 40044,
      "units": 0,
      "contractor": "",
      "stage_date": "",
      "notes": "",
      "subway": "",
      "hangang": false,
      "completion_est": "",
      "ref_note": ""
    },
    {
      "id": "api_79",
      "name": "4-2지구",
      "region": "서울",
      "district": "마포구",
      "dong": "",
      "type": "재개발",
      "stage": "도시환경정비사업지구",
      "stage_idx": 0,
      "lat": 37.56689192554684,
      "lng": 126.90444217370508,
      "area_m2": 1192,
      "units": 0,
      "contractor": "",
      "stage_date": "",
      "notes": "",
      "subway": "",
      "hangang": false,
      "completion_est": "",
      "ref_note": ""
    },
    {
      "id": "api_80",
      "name": "흑석9재정비촉진구역",
      "region": "서울",
      "district": "동작구",
      "dong": "",
      "type": "재개발",
      "stage": "주택재개발사업구역",
      "stage_idx": 0,
      "lat": 37.50354180300185,
      "lng": 126.9404059040808,
      "area_m2": 94577,
      "units": 0,
      "contractor": "",
      "stage_date": "",
      "notes": "",
      "subway": "",
      "hangang": false,
      "completion_est": "",
      "ref_note": ""
    },
    {
      "id": "api_81",
      "name": "문래동1가A 도시정비형 재개발구역",
      "region": "서울",
      "district": "영등포구",
      "dong": "",
      "type": "재개발",
      "stage": "도시환경정비사업구역",
      "stage_idx": 0,
      "lat": 37.517263708189446,
      "lng": 126.88956240723057,
      "area_m2": 45884,
      "units": 0,
      "contractor": "",
      "stage_date": "",
      "notes": "",
      "subway": "",
      "hangang": false,
      "completion_est": "",
      "ref_note": ""
    },
    {
      "id": "api_82",
      "name": "문래동1가B 도시정비형 재개발구역",
      "region": "서울",
      "district": "영등포구",
      "dong": "",
      "type": "재개발",
      "stage": "도시환경정비사업구역",
      "stage_idx": 0,
      "lat": 37.52393500512779,
      "lng": 126.8993021000208,
      "area_m2": 27878,
      "units": 0,
      "contractor": "",
      "stage_date": "",
      "notes": "",
      "subway": "",
      "hangang": false,
      "completion_est": "",
      "ref_note": ""
    },
    {
      "id": "api_83",
      "name": "신촌지역 마포4  도시정비형 재개발구역",
      "region": "서울",
      "district": "마포구",
      "dong": "",
      "type": "재개발",
      "stage": "도시환경정비사업구역",
      "stage_idx": 0,
      "lat": 37.56565230335344,
      "lng": 126.91757310681615,
      "area_m2": 50515,
      "units": 0,
      "contractor": "",
      "stage_date": "",
      "notes": "",
      "subway": "",
      "hangang": false,
      "completion_est": "",
      "ref_note": ""
    },
    {
      "id": "api_84",
      "name": "상봉10재정비촉진구역",
      "region": "서울",
      "district": "중랑구",
      "dong": "",
      "type": "재개발",
      "stage": "도시환경정비사업구역",
      "stage_idx": 0,
      "lat": 37.599343652210464,
      "lng": 127.08564204739497,
      "area_m2": 0,
      "units": 0,
      "contractor": "",
      "stage_date": "",
      "notes": "",
      "subway": "",
      "hangang": false,
      "completion_est": "",
      "ref_note": ""
    },
    {
      "id": "api_85",
      "name": "무교다동 11지구",
      "region": "서울",
      "district": "중구",
      "dong": "",
      "type": "재개발",
      "stage": "도시환경정비사업지구",
      "stage_idx": 0,
      "lat": 37.56885033457105,
      "lng": 126.99412518021536,
      "area_m2": 1370,
      "units": 0,
      "contractor": "",
      "stage_date": "",
      "notes": "",
      "subway": "",
      "hangang": false,
      "completion_est": "",
      "ref_note": ""
    },
    {
      "id": "api_86",
      "name": "무교다동 23-1지구",
      "region": "서울",
      "district": "중구",
      "dong": "",
      "type": "재개발",
      "stage": "정비구역",
      "stage_idx": 0,
      "lat": 37.57193864042921,
      "lng": 127.00004192435676,
      "area_m2": 1330,
      "units": 0,
      "contractor": "",
      "stage_date": "",
      "notes": "",
      "subway": "",
      "hangang": false,
      "completion_est": "",
      "ref_note": ""
    },
    {
      "id": "api_87",
      "name": "무교다동 23-9지구 ",
      "region": "서울",
      "district": "중구",
      "dong": "",
      "type": "재개발",
      "stage": "도시환경정비사업지구",
      "stage_idx": 0,
      "lat": 37.56364016451848,
      "lng": 127.00384407600708,
      "area_m2": 1330,
      "units": 0,
      "contractor": "",
      "stage_date": "",
      "notes": "",
      "subway": "",
      "hangang": false,
      "completion_est": "",
      "ref_note": ""
    },
    {
      "id": "api_88",
      "name": "무교다동 24-6지구 ",
      "region": "서울",
      "district": "중구",
      "dong": "",
      "type": "재개발",
      "stage": "도시환경정비사업지구",
      "stage_idx": 0,
      "lat": 37.56493515462205,
      "lng": 126.99774815173474,
      "area_m2": 1353,
      "units": 0,
      "contractor": "",
      "stage_date": "",
      "notes": "",
      "subway": "",
      "hangang": false,
      "completion_est": "",
      "ref_note": ""
    },
    {
      "id": "api_89",
      "name": "무교다동 24-4지구 ",
      "region": "서울",
      "district": "중구",
      "dong": "",
      "type": "재개발",
      "stage": "도시환경정비사업지구",
      "stage_idx": 0,
      "lat": 37.5558228815211,
      "lng": 126.99670388282891,
      "area_m2": 1353,
      "units": 0,
      "contractor": "",
      "stage_date": "",
      "notes": "",
      "subway": "",
      "hangang": false,
      "completion_est": "",
      "ref_note": ""
    },
    {
      "id": "api_90",
      "name": "무교다동구역 제16지구",
      "region": "서울",
      "district": "중구",
      "dong": "",
      "type": "재개발",
      "stage": "도시환경정비사업지구",
      "stage_idx": 0,
      "lat": 37.57281747144645,
      "lng": 126.989847549654,
      "area_m2": 2812,
      "units": 0,
      "contractor": "",
      "stage_date": "",
      "notes": "",
      "subway": "",
      "hangang": false,
      "completion_est": "",
      "ref_note": ""
    },
    {
      "id": "api_92",
      "name": "무교다동 24-2지구 ",
      "region": "서울",
      "district": "중구",
      "dong": "",
      "type": "재개발",
      "stage": "도시환경정비사업지구",
      "stage_idx": 0,
      "lat": 37.56293139735503,
      "lng": 126.99896759045555,
      "area_m2": 1353,
      "units": 0,
      "contractor": "",
      "stage_date": "",
      "notes": "",
      "subway": "",
      "hangang": false,
      "completion_est": "",
      "ref_note": ""
    },
    {
      "id": "api_93",
      "name": "무교다동 23-12지구 ",
      "region": "서울",
      "district": "중구",
      "dong": "",
      "type": "재개발",
      "stage": "도시환경정비사업지구",
      "stage_idx": 0,
      "lat": 37.57337612790942,
      "lng": 126.99872849727524,
      "area_m2": 1330,
      "units": 0,
      "contractor": "",
      "stage_date": "",
      "notes": "",
      "subway": "",
      "hangang": false,
      "completion_est": "",
      "ref_note": ""
    },
    {
      "id": "api_94",
      "name": "무교다동 22-3지구 ",
      "region": "서울",
      "district": "중구",
      "dong": "",
      "type": "재개발",
      "stage": "도시환경정비사업지구",
      "stage_idx": 0,
      "lat": 37.56989503467349,
      "lng": 127.00490963162872,
      "area_m2": 1057,
      "units": 0,
      "contractor": "",
      "stage_date": "",
      "notes": "",
      "subway": "",
      "hangang": false,
      "completion_est": "",
      "ref_note": ""
    },
    {
      "id": "api_95",
      "name": "무교다동 23-8지구 ",
      "region": "서울",
      "district": "중구",
      "dong": "",
      "type": "재개발",
      "stage": "도시환경정비사업지구",
      "stage_idx": 0,
      "lat": 37.56683024247401,
      "lng": 127.00682824777415,
      "area_m2": 1330,
      "units": 0,
      "contractor": "",
      "stage_date": "",
      "notes": "",
      "subway": "",
      "hangang": false,
      "completion_est": "",
      "ref_note": ""
    },
    {
      "id": "api_98",
      "name": "신정2재정비촉진구역",
      "region": "서울",
      "district": "양천구",
      "dong": "",
      "type": "재개발",
      "stage": "주택재개발사업구역",
      "stage_idx": 0,
      "lat": 37.509486752042626,
      "lng": 126.87203624884413,
      "area_m2": 105685,
      "units": 0,
      "contractor": "",
      "stage_date": "",
      "notes": "",
      "subway": "",
      "hangang": false,
      "completion_est": "",
      "ref_note": ""
    },
    {
      "id": "api_509",
      "name": "유원제일2차아파트 재건축정비사업",
      "region": "서울",
      "district": "영등포구",
      "dong": "",
      "type": "재건축",
      "stage": "재건축사업구역",
      "stage_idx": 0,
      "lat": 37.51917020151499,
      "lng": 126.89244078703904,
      "area_m2": 28654,
      "units": 0,
      "contractor": "",
      "stage_date": "",
      "notes": "",
      "subway": "",
      "hangang": false,
      "completion_est": "",
      "ref_note": ""
    },
    {
      "id": "api_510",
      "name": "마포로1구역 제48지구 도시정비형 재개발사업 ",
      "region": "서울",
      "district": "마포구",
      "dong": "",
      "type": "재개발",
      "stage": "도시환경정비사업구역",
      "stage_idx": 0,
      "lat": 37.56585161562675,
      "lng": 126.89870300354859,
      "area_m2": 3802,
      "units": 0,
      "contractor": "",
      "stage_date": "",
      "notes": "",
      "subway": "",
      "hangang": false,
      "completion_est": "",
      "ref_note": ""
    },
    {
      "id": "api_511",
      "name": "흑석4재정비촉진구역",
      "region": "서울",
      "district": "동작구",
      "dong": "",
      "type": "재개발",
      "stage": "주택재개발사업구역",
      "stage_idx": 0,
      "lat": 37.519824669900004,
      "lng": 126.93672994428856,
      "area_m2": 56622,
      "units": 0,
      "contractor": "",
      "stage_date": "",
      "notes": "",
      "subway": "",
      "hangang": false,
      "completion_est": "",
      "ref_note": ""
    },
    {
      "id": "api_512",
      "name": "주택재건축정비구역",
      "region": "서울",
      "district": "강동구",
      "dong": "",
      "type": "재건축",
      "stage": "주택재건축사업",
      "stage_idx": 0,
      "lat": 37.53967494364616,
      "lng": 127.11912197437645,
      "area_m2": 12181,
      "units": 0,
      "contractor": "",
      "stage_date": "",
      "notes": "",
      "subway": "",
      "hangang": false,
      "completion_est": "",
      "ref_note": ""
    },
    {
      "id": "api_565",
      "name": "무교다동 8지구",
      "region": "서울",
      "district": "중구",
      "dong": "",
      "type": "재개발",
      "stage": "도시환경정비사업지구",
      "stage_idx": 0,
      "lat": 37.55734538133319,
      "lng": 127.00663629692244,
      "area_m2": 1386,
      "units": 0,
      "contractor": "",
      "stage_date": "",
      "notes": "",
      "subway": "",
      "hangang": false,
      "completion_est": "",
      "ref_note": ""
    },
    {
      "id": "api_566",
      "name": "무교다동 23-11지구 ",
      "region": "서울",
      "district": "중구",
      "dong": "",
      "type": "재개발",
      "stage": "도시환경정비사업지구",
      "stage_idx": 0,
      "lat": 37.568616702235055,
      "lng": 126.99378903177382,
      "area_m2": 1330,
      "units": 0,
      "contractor": "",
      "stage_date": "",
      "notes": "",
      "subway": "",
      "hangang": false,
      "completion_est": "",
      "ref_note": ""
    },
    {
      "id": "api_567",
      "name": "마포지역 도시환경 정비사업구역",
      "region": "서울",
      "district": "서대문구",
      "dong": "",
      "type": "재개발",
      "stage": "도시환경정비사업구역",
      "stage_idx": 0,
      "lat": 37.570204021152946,
      "lng": 126.93945109515138,
      "area_m2": 6244,
      "units": 0,
      "contractor": "",
      "stage_date": "",
      "notes": "",
      "subway": "",
      "hangang": false,
      "completion_est": "",
      "ref_note": ""
    },
    {
      "id": "api_568",
      "name": "신촌지역(마포)1-2지구 도시정비형 재개발구역",
      "region": "서울",
      "district": "마포구",
      "dong": "",
      "type": "재개발",
      "stage": "도시환경정비사업구역",
      "stage_idx": 0,
      "lat": 37.56746054776985,
      "lng": 126.90012466562294,
      "area_m2": 1427,
      "units": 0,
      "contractor": "",
      "stage_date": "",
      "notes": "",
      "subway": "",
      "hangang": false,
      "completion_est": "",
      "ref_note": ""
    },
    {
      "id": "api_569",
      "name": "사당3 재건축정비사업",
      "region": "서울",
      "district": "동작구",
      "dong": "",
      "type": "재건축",
      "stage": "주택재건축사업",
      "stage_idx": 0,
      "lat": 37.50921791523567,
      "lng": 126.93002765184161,
      "area_m2": 30100,
      "units": 0,
      "contractor": "",
      "stage_date": "",
      "notes": "",
      "subway": "",
      "hangang": false,
      "completion_est": "",
      "ref_note": ""
    },
    {
      "id": "api_570",
      "name": "마포로5구역",
      "region": "서울",
      "district": "서대문구",
      "dong": "",
      "type": "재개발",
      "stage": "도시환경정비사업구역",
      "stage_idx": 0,
      "lat": 37.5758747594949,
      "lng": 126.94654727780545,
      "area_m2": 61194,
      "units": 0,
      "contractor": "",
      "stage_date": "",
      "notes": "",
      "subway": "",
      "hangang": false,
      "completion_est": "",
      "ref_note": ""
    },
    {
      "id": "api_571",
      "name": "마포로5-2",
      "region": "서울",
      "district": "서대문구",
      "dong": "",
      "type": "재개발",
      "stage": "도시환경정비사업지구",
      "stage_idx": 0,
      "lat": 37.57734351738957,
      "lng": 126.92742940982119,
      "area_m2": 4565,
      "units": 0,
      "contractor": "",
      "stage_date": "",
      "notes": "",
      "subway": "",
      "hangang": false,
      "completion_est": "",
      "ref_note": ""
    },
    {
      "id": "api_572",
      "name": "마포로5-3",
      "region": "서울",
      "district": "서대문구",
      "dong": "",
      "type": "재개발",
      "stage": "도시환경정비사업지구",
      "stage_idx": 0,
      "lat": 37.5870359973849,
      "lng": 126.93161172041815,
      "area_m2": 0,
      "units": 0,
      "contractor": "",
      "stage_date": "",
      "notes": "",
      "subway": "",
      "hangang": false,
      "completion_est": "",
      "ref_note": ""
    },
    {
      "id": "api_573",
      "name": "마포로5-3-1",
      "region": "서울",
      "district": "서대문구",
      "dong": "",
      "type": "재개발",
      "stage": "도시환경정비사업지구",
      "stage_idx": 0,
      "lat": 37.577408784319324,
      "lng": 126.94020530394648,
      "area_m2": 0,
      "units": 0,
      "contractor": "",
      "stage_date": "",
      "notes": "",
      "subway": "",
      "hangang": false,
      "completion_est": "",
      "ref_note": ""
    },
    {
      "id": "api_574",
      "name": "마포로5-4",
      "region": "서울",
      "district": "서대문구",
      "dong": "",
      "type": "재개발",
      "stage": "도시환경정비사업지구",
      "stage_idx": 0,
      "lat": 37.56949522122131,
      "lng": 126.93774606671764,
      "area_m2": 0,
      "units": 0,
      "contractor": "",
      "stage_date": "",
      "notes": "",
      "subway": "",
      "hangang": false,
      "completion_est": "",
      "ref_note": ""
    },
    {
      "id": "api_575",
      "name": "마포로5-8",
      "region": "서울",
      "district": "서대문구",
      "dong": "",
      "type": "재개발",
      "stage": "도시환경정비사업지구",
      "stage_idx": 0,
      "lat": 37.57028424546415,
      "lng": 126.9340802087369,
      "area_m2": 0,
      "units": 0,
      "contractor": "",
      "stage_date": "",
      "notes": "",
      "subway": "",
      "hangang": false,
      "completion_est": "",
      "ref_note": ""
    },
    {
      "id": "api_576",
      "name": "효창제6구역 주택재개발정비사업",
      "region": "서울",
      "district": "용산구",
      "dong": "",
      "type": "재개발",
      "stage": "주택재개발사업구역",
      "stage_idx": 0,
      "lat": 37.53183718988921,
      "lng": 126.97914939840643,
      "area_m2": 18397,
      "units": 0,
      "contractor": "",
      "stage_date": "",
      "notes": "",
      "subway": "",
      "hangang": false,
      "completion_est": "",
      "ref_note": ""
    },
    {
      "id": "api_577",
      "name": "연신내구역 도시정비형 재개발사업",
      "region": "서울",
      "district": "은평구",
      "dong": "",
      "type": "재개발",
      "stage": "도시환경정비사업구역",
      "stage_idx": 0,
      "lat": 37.60278110647121,
      "lng": 126.92173725556347,
      "area_m2": 8699,
      "units": 0,
      "contractor": "",
      "stage_date": "",
      "notes": "",
      "subway": "",
      "hangang": false,
      "completion_est": "",
      "ref_note": ""
    },
    {
      "id": "api_578",
      "name": "잠실주공5단지아파트 재건축사업 정비구역",
      "region": "서울",
      "district": "송파구",
      "dong": "",
      "type": "재건축",
      "stage": "재건축사업구역",
      "stage_idx": 0,
      "lat": 37.52117149177715,
      "lng": 127.0985220222299,
      "area_m2": 353987,
      "units": 0,
      "contractor": "",
      "stage_date": "",
      "notes": "",
      "subway": "",
      "hangang": false,
      "completion_est": "",
      "ref_note": ""
    },
    {
      "id": "api_579",
      "name": "잠실우성4차아파트주택재건축정비구역",
      "region": "서울",
      "district": "송파구",
      "dong": "",
      "type": "재건축",
      "stage": "주택재건축사업",
      "stage_idx": 0,
      "lat": 37.52025529393974,
      "lng": 127.09861110961762,
      "area_m2": 31630,
      "units": 0,
      "contractor": "",
      "stage_date": "",
      "notes": "",
      "subway": "",
      "hangang": false,
      "completion_est": "",
      "ref_note": ""
    },
    {
      "id": "api_580",
      "name": "신촌지역(마포) 4-9지구 도시정비형 재개발구역 ",
      "region": "서울",
      "district": "마포구",
      "dong": "",
      "type": "재개발",
      "stage": "도시환경정비사업구역",
      "stage_idx": 0,
      "lat": 37.55391018732971,
      "lng": 126.90820504376487,
      "area_m2": 4827,
      "units": 0,
      "contractor": "",
      "stage_date": "",
      "notes": "",
      "subway": "",
      "hangang": false,
      "completion_est": "",
      "ref_note": ""
    },
    {
      "id": "api_581",
      "name": "미장세림아파트 주택재건축사업",
      "region": "서울",
      "district": "성동구",
      "dong": "",
      "type": "재건축",
      "stage": "주택재건축사업",
      "stage_idx": 0,
      "lat": 37.555131680573126,
      "lng": 127.03520369682501,
      "area_m2": 0,
      "units": 0,
      "contractor": "",
      "stage_date": "",
      "notes": "",
      "subway": "",
      "hangang": false,
      "completion_est": "",
      "ref_note": ""
    },
    {
      "id": "api_582",
      "name": "청담삼익아파트 재건축사업",
      "region": "서울",
      "district": "강남구",
      "dong": "",
      "type": "재건축",
      "stage": "주택재건축사업",
      "stage_idx": 0,
      "lat": 37.510918856175984,
      "lng": 127.05360916254104,
      "area_m2": 0,
      "units": 0,
      "contractor": "",
      "stage_date": "",
      "notes": "",
      "subway": "",
      "hangang": false,
      "completion_est": "",
      "ref_note": ""
    },
    {
      "id": "api_583",
      "name": "합정7재정비촉진구역",
      "region": "서울",
      "district": "마포구",
      "dong": "",
      "type": "재개발",
      "stage": "도시환경정비사업구역",
      "stage_idx": 0,
      "lat": 37.55430106042245,
      "lng": 126.90002072145387,
      "area_m2": 0,
      "units": 0,
      "contractor": "",
      "stage_date": "",
      "notes": "",
      "subway": "",
      "hangang": false,
      "completion_est": "",
      "ref_note": ""
    },
    {
      "id": "api_584",
      "name": "강동역 역세권 활성화 도시정비형 재개발 정비구역",
      "region": "서울",
      "district": "강동구",
      "dong": "",
      "type": "재개발",
      "stage": "도시환경정비사업구역",
      "stage_idx": 0,
      "lat": 37.5377102016561,
      "lng": 127.12974284582452,
      "area_m2": 0,
      "units": 0,
      "contractor": "",
      "stage_date": "",
      "notes": "",
      "subway": "",
      "hangang": false,
      "completion_est": "",
      "ref_note": ""
    },
    {
      "id": "api_585",
      "name": "여의도 공작아파트 재건축정비사업 ",
      "region": "서울",
      "district": "영등포구",
      "dong": "",
      "type": "재건축",
      "stage": "재건축사업구역",
      "stage_idx": 0,
      "lat": 37.535274480196534,
      "lng": 126.8972220453841,
      "area_m2": 0,
      "units": 0,
      "contractor": "",
      "stage_date": "",
      "notes": "",
      "subway": "",
      "hangang": false,
      "completion_est": "",
      "ref_note": ""
    },
    {
      "id": "api_586",
      "name": "제기 제6구역 주택재개발정비구역",
      "region": "서울",
      "district": "동대문구",
      "dong": "",
      "type": "재개발",
      "stage": "주택재개발사업구역",
      "stage_idx": 0,
      "lat": 37.573444551850095,
      "lng": 127.04635229095226,
      "area_m2": 24320,
      "units": 0,
      "contractor": "",
      "stage_date": "",
      "notes": "",
      "subway": "",
      "hangang": false,
      "completion_est": "",
      "ref_note": ""
    },
    {
      "id": "api_590",
      "name": "봉천제12-2 주택재개발정비사업",
      "region": "서울",
      "district": "관악구",
      "dong": "",
      "type": "재개발",
      "stage": "주택재개발사업구역",
      "stage_idx": 0,
      "lat": 37.47754152590772,
      "lng": 126.94735560067154,
      "area_m2": 80917,
      "units": 0,
      "contractor": "",
      "stage_date": "",
      "notes": "",
      "subway": "",
      "hangang": false,
      "completion_est": "",
      "ref_note": ""
    },
    {
      "id": "api_599",
      "name": "공평구역",
      "region": "서울",
      "district": "종로구",
      "dong": "",
      "type": "재개발",
      "stage": "도시환경정비사업구역",
      "stage_idx": 0,
      "lat": 37.5849623422029,
      "lng": 126.9867159326073,
      "area_m2": 95028,
      "units": 0,
      "contractor": "",
      "stage_date": "",
      "notes": "",
      "subway": "",
      "hangang": false,
      "completion_est": "",
      "ref_note": ""
    },
    {
      "id": "api_600",
      "name": "공평구역<15.16지구>",
      "region": "서울",
      "district": "종로구",
      "dong": "",
      "type": "재개발",
      "stage": "도시환경정비사업구역",
      "stage_idx": 0,
      "lat": 37.599417467406916,
      "lng": 126.96978980973982,
      "area_m2": 12854,
      "units": 0,
      "contractor": "",
      "stage_date": "",
      "notes": "",
      "subway": "",
      "hangang": false,
      "completion_est": "",
      "ref_note": ""
    },
    {
      "id": "api_601",
      "name": "돈의문3재정비촉진구역",
      "region": "서울",
      "district": "종로구",
      "dong": "",
      "type": "재개발",
      "stage": "도시환경정비사업구역",
      "stage_idx": 0,
      "lat": 37.5906074446439,
      "lng": 126.97562627538811,
      "area_m2": 8844,
      "units": 0,
      "contractor": "",
      "stage_date": "",
      "notes": "",
      "subway": "",
      "hangang": false,
      "completion_est": "",
      "ref_note": ""
    },
    {
      "id": "api_618",
      "name": "영등포1-3재정비촉진구역",
      "region": "서울",
      "district": "영등포구",
      "dong": "",
      "type": "재개발",
      "stage": "도시환경정비사업구역",
      "stage_idx": 0,
      "lat": 37.51843518898074,
      "lng": 126.89082591542103,
      "area_m2": 8407,
      "units": 0,
      "contractor": "",
      "stage_date": "",
      "notes": "",
      "subway": "",
      "hangang": false,
      "completion_est": "",
      "ref_note": ""
    },
    {
      "id": "api_630",
      "name": "삼선제5구역 주택재개발 정비사업",
      "region": "서울",
      "district": "성북구",
      "dong": "",
      "type": "재개발",
      "stage": "주택재개발사업구역",
      "stage_idx": 0,
      "lat": 37.580033375966586,
      "lng": 127.02354580782124,
      "area_m2": 63780,
      "units": 0,
      "contractor": "",
      "stage_date": "",
      "notes": "",
      "subway": "",
      "hangang": false,
      "completion_est": "",
      "ref_note": ""
    },
    {
      "id": "api_631",
      "name": "영천구역 주택재개발정비구역",
      "region": "서울",
      "district": "서대문구",
      "dong": "",
      "type": "재개발",
      "stage": "주택재개발사업구역",
      "stage_idx": 0,
      "lat": 37.58183832925346,
      "lng": 126.94230522252985,
      "area_m2": 11154,
      "units": 0,
      "contractor": "",
      "stage_date": "",
      "notes": "",
      "subway": "",
      "hangang": false,
      "completion_est": "",
      "ref_note": ""
    },
    {
      "id": "api_632",
      "name": "마포로5 도시정비형 재개발구역 9-1지구",
      "region": "서울",
      "district": "중구",
      "dong": "",
      "type": "재개발",
      "stage": "도시환경정비사업구역",
      "stage_idx": 0,
      "lat": 37.554689369239526,
      "lng": 126.99866844759441,
      "area_m2": 1936,
      "units": 0,
      "contractor": "",
      "stage_date": "",
      "notes": "",
      "subway": "",
      "hangang": false,
      "completion_est": "",
      "ref_note": ""
    },
    {
      "id": "api_633",
      "name": "수색4재정비촉진구역",
      "region": "서울",
      "district": "은평구",
      "dong": "",
      "type": "재개발",
      "stage": "주택재개발사업구역",
      "stage_idx": 0,
      "lat": 37.60837605552693,
      "lng": 126.93613990364581,
      "area_m2": 61898,
      "units": 0,
      "contractor": "",
      "stage_date": "",
      "notes": "",
      "subway": "",
      "hangang": false,
      "completion_est": "",
      "ref_note": ""
    },
    {
      "id": "api_634",
      "name": "가락상아1차 아파트 재건축 정비사업",
      "region": "서울",
      "district": "송파구",
      "dong": "",
      "type": "재건축",
      "stage": "주택재건축사업",
      "stage_idx": 0,
      "lat": 37.513103283147586,
      "lng": 127.11380999249775,
      "area_m2": 13580,
      "units": 0,
      "contractor": "",
      "stage_date": "",
      "notes": "",
      "subway": "",
      "hangang": false,
      "completion_est": "",
      "ref_note": ""
    },
    {
      "id": "api_635",
      "name": "오류동 현대연립 재건축 정비사업",
      "region": "서울",
      "district": "구로구",
      "dong": "",
      "type": "재건축",
      "stage": "주택재건축사업",
      "stage_idx": 0,
      "lat": 37.50480788614839,
      "lng": 126.88730141007963,
      "area_m2": 23223,
      "units": 0,
      "contractor": "",
      "stage_date": "",
      "notes": "",
      "subway": "",
      "hangang": false,
      "completion_est": "",
      "ref_note": ""
    },
    {
      "id": "api_639",
      "name": "미아3 재정비촉진구역 ",
      "region": "서울",
      "district": "강북구",
      "dong": "",
      "type": "재개발",
      "stage": "주택재개발사업구역",
      "stage_idx": 0,
      "lat": 37.64303210674257,
      "lng": 127.02804034014288,
      "area_m2": 57558,
      "units": 0,
      "contractor": "",
      "stage_date": "",
      "notes": "",
      "subway": "",
      "hangang": false,
      "completion_est": "",
      "ref_note": ""
    },
    {
      "id": "api_640",
      "name": "미아9-2 주택재건축정비사업",
      "region": "서울",
      "district": "강북구",
      "dong": "",
      "type": "재건축",
      "stage": "주택재건축사업",
      "stage_idx": 0,
      "lat": 37.63118576515219,
      "lng": 127.0325448239838,
      "area_m2": 102518,
      "units": 0,
      "contractor": "",
      "stage_date": "",
      "notes": "",
      "subway": "",
      "hangang": false,
      "completion_est": "",
      "ref_note": ""
    },
    {
      "id": "api_641",
      "name": "거여2재정비촉진구역 (주택재개발사업)",
      "region": "서울",
      "district": "송파구",
      "dong": "",
      "type": "재개발",
      "stage": "주택재개발사업구역",
      "stage_idx": 0,
      "lat": 37.52059841114815,
      "lng": 127.11268869191855,
      "area_m2": 160288,
      "units": 0,
      "contractor": "",
      "stage_date": "",
      "notes": "",
      "subway": "",
      "hangang": false,
      "completion_est": "",
      "ref_note": ""
    },
    {
      "id": "api_642",
      "name": "개봉5 주택재건축 정비구역",
      "region": "서울",
      "district": "구로구",
      "dong": "",
      "type": "재건축",
      "stage": "주택재건축사업",
      "stage_idx": 0,
      "lat": 37.504449472615555,
      "lng": 126.89638581704317,
      "area_m2": 13099,
      "units": 0,
      "contractor": "",
      "stage_date": "",
      "notes": "",
      "subway": "",
      "hangang": false,
      "completion_est": "",
      "ref_note": ""
    },
    {
      "id": "api_643",
      "name": "대흥제2구역 주택재개발사업",
      "region": "서울",
      "district": "마포구",
      "dong": "",
      "type": "재개발",
      "stage": "주택재개발사업구역",
      "stage_idx": 0,
      "lat": 37.5721059833432,
      "lng": 126.91128221314068,
      "area_m2": 61077,
      "units": 0,
      "contractor": "",
      "stage_date": "",
      "notes": "",
      "subway": "",
      "hangang": false,
      "completion_est": "",
      "ref_note": ""
    },
    {
      "id": "api_644",
      "name": "중앙동 새싹마을 관리형 주거환경개선사업",
      "region": "서울",
      "district": "관악구",
      "dong": "",
      "type": "재개발",
      "stage": "주거환경개선사업구역",
      "stage_idx": 0,
      "lat": 37.47283936929888,
      "lng": 126.95238930393435,
      "area_m2": 0,
      "units": 0,
      "contractor": "",
      "stage_date": "",
      "notes": "",
      "subway": "",
      "hangang": false,
      "completion_est": "",
      "ref_note": ""
    },
    {
      "id": "api_645",
      "name": "신수2 주택재건축 정비구역",
      "region": "서울",
      "district": "마포구",
      "dong": "",
      "type": "재건축",
      "stage": "주택재건축사업",
      "stage_idx": 0,
      "lat": 37.56796136987082,
      "lng": 126.89912922302507,
      "area_m2": 17264,
      "units": 0,
      "contractor": "",
      "stage_date": "",
      "notes": "",
      "subway": "",
      "hangang": false,
      "completion_est": "",
      "ref_note": ""
    },
    {
      "id": "api_646",
      "name": "영등포1-13재정비촉진구역",
      "region": "서울",
      "district": "영등포구",
      "dong": "",
      "type": "재개발",
      "stage": "도시환경정비사업구역",
      "stage_idx": 0,
      "lat": 37.51950219650413,
      "lng": 126.89397817156079,
      "area_m2": 27049,
      "units": 0,
      "contractor": "",
      "stage_date": "",
      "notes": "",
      "subway": "",
      "hangang": false,
      "completion_est": "",
      "ref_note": ""
    },
    {
      "id": "api_647",
      "name": "서울역-서대문 1.2 도시정비형 재개발구역",
      "region": "서울",
      "district": "중구",
      "dong": "",
      "type": "재개발",
      "stage": "도시환경정비사업구역",
      "stage_idx": 0,
      "lat": 37.57384945434367,
      "lng": 126.99962465611863,
      "area_m2": 80719,
      "units": 0,
      "contractor": "",
      "stage_date": "",
      "notes": "",
      "subway": "",
      "hangang": false,
      "completion_est": "",
      "ref_note": ""
    },
    {
      "id": "api_648",
      "name": "서울역-서대문 1,2 ",
      "region": "서울",
      "district": "중구",
      "dong": "",
      "type": "재개발",
      "stage": "도시환경정비사업지구",
      "stage_idx": 0,
      "lat": 37.57267012874836,
      "lng": 127.00411344734135,
      "area_m2": 22029,
      "units": 0,
      "contractor": "",
      "stage_date": "",
      "notes": "",
      "subway": "",
      "hangang": false,
      "completion_est": "",
      "ref_note": ""
    },
    {
      "id": "api_649",
      "name": "서울역-서대문 1.2",
      "region": "서울",
      "district": "중구",
      "dong": "",
      "type": "재개발",
      "stage": "도시환경정비사업지구",
      "stage_idx": 0,
      "lat": 37.5637087917012,
      "lng": 127.00581215017617,
      "area_m2": 1109,
      "units": 0,
      "contractor": "",
      "stage_date": "",
      "notes": "",
      "subway": "",
      "hangang": false,
      "completion_est": "",
      "ref_note": ""
    },
    {
      "id": "api_650",
      "name": "서울역-서대문 1.2",
      "region": "서울",
      "district": "중구",
      "dong": "",
      "type": "재개발",
      "stage": "도시환경정비사업지구",
      "stage_idx": 0,
      "lat": 37.56216103699458,
      "lng": 127.00211545795739,
      "area_m2": 1109,
      "units": 0,
      "contractor": "",
      "stage_date": "",
      "notes": "",
      "subway": "",
      "hangang": false,
      "completion_est": "",
      "ref_note": ""
    },
    {
      "id": "api_651",
      "name": "서울역-서대문 1.2",
      "region": "서울",
      "district": "중구",
      "dong": "",
      "type": "재개발",
      "stage": "도시환경정비사업지구",
      "stage_idx": 0,
      "lat": 37.55524960637338,
      "lng": 127.00661313889297,
      "area_m2": 1109,
      "units": 0,
      "contractor": "",
      "stage_date": "",
      "notes": "",
      "subway": "",
      "hangang": false,
      "completion_est": "",
      "ref_note": ""
    },
    {
      "id": "api_716",
      "name": "서울역-서대문 1.2",
      "region": "서울",
      "district": "중구",
      "dong": "",
      "type": "재개발",
      "stage": "도시환경정비사업지구",
      "stage_idx": 0,
      "lat": 37.571440219586776,
      "lng": 126.99622620465081,
      "area_m2": 6588,
      "units": 0,
      "contractor": "",
      "stage_date": "",
      "notes": "",
      "subway": "",
      "hangang": false,
      "completion_est": "",
      "ref_note": ""
    },
    {
      "id": "api_717",
      "name": "서울역-서대문 1.2구역 제1지구",
      "region": "서울",
      "district": "중구",
      "dong": "",
      "type": "재개발",
      "stage": "도시환경정비사업지구",
      "stage_idx": 0,
      "lat": 37.56573754734744,
      "lng": 126.9997984994867,
      "area_m2": 16316,
      "units": 0,
      "contractor": "",
      "stage_date": "",
      "notes": "",
      "subway": "",
      "hangang": false,
      "completion_est": "",
      "ref_note": ""
    },
    {
      "id": "api_718",
      "name": "영천구역 주택재개발정비구역",
      "region": "서울",
      "district": "서대문구",
      "dong": "",
      "type": "재개발",
      "stage": "주택재개발사업구역",
      "stage_idx": 0,
      "lat": 37.576644146461206,
      "lng": 126.94633573760618,
      "area_m2": 10948,
      "units": 0,
      "contractor": "",
      "stage_date": "",
      "notes": "",
      "subway": "",
      "hangang": false,
      "completion_est": "",
      "ref_note": ""
    },
    {
      "id": "api_719",
      "name": "을지로2가 1.3.6.18",
      "region": "서울",
      "district": "중구",
      "dong": "",
      "type": "재개발",
      "stage": "도시환경정비사업지구",
      "stage_idx": 0,
      "lat": 37.55695205961932,
      "lng": 126.99462670730001,
      "area_m2": 0,
      "units": 0,
      "contractor": "",
      "stage_date": "",
      "notes": "",
      "subway": "",
      "hangang": false,
      "completion_est": "",
      "ref_note": ""
    },
    {
      "id": "api_720",
      "name": "을지로2가 2",
      "region": "서울",
      "district": "중구",
      "dong": "",
      "type": "재개발",
      "stage": "도시환경정비사업지구",
      "stage_idx": 0,
      "lat": 37.564785520119656,
      "lng": 126.98901861900009,
      "area_m2": 3473,
      "units": 0,
      "contractor": "",
      "stage_date": "",
      "notes": "",
      "subway": "",
      "hangang": false,
      "completion_est": "",
      "ref_note": ""
    },
    {
      "id": "api_721",
      "name": "을지로2가 18-1",
      "region": "서울",
      "district": "중구",
      "dong": "",
      "type": "재개발",
      "stage": "도시환경정비사업지구",
      "stage_idx": 0,
      "lat": 37.558516450840095,
      "lng": 127.00553101301607,
      "area_m2": 1477,
      "units": 0,
      "contractor": "",
      "stage_date": "",
      "notes": "",
      "subway": "",
      "hangang": false,
      "completion_est": "",
      "ref_note": ""
    },
    {
      "id": "api_722",
      "name": "을지로2가 18-2",
      "region": "서울",
      "district": "중구",
      "dong": "",
      "type": "재개발",
      "stage": "도시환경정비사업지구",
      "stage_idx": 0,
      "lat": 37.57403686473099,
      "lng": 127.00330307964856,
      "area_m2": 1477,
      "units": 0,
      "contractor": "",
      "stage_date": "",
      "notes": "",
      "subway": "",
      "hangang": false,
      "completion_est": "",
      "ref_note": ""
    },
    {
      "id": "api_857",
      "name": "주택재개발사업",
      "region": "서울",
      "district": "동작구",
      "dong": "",
      "type": "재개발",
      "stage": "주택재개발사업구역",
      "stage_idx": 0,
      "lat": 37.52174565973956,
      "lng": 126.93573200010889,
      "area_m2": 35303,
      "units": 0,
      "contractor": "",
      "stage_date": "",
      "notes": "",
      "subway": "",
      "hangang": false,
      "completion_est": "",
      "ref_note": ""
    },
    {
      "id": "api_864",
      "name": "상아.현대아파트 주택재건축사업",
      "region": "서울",
      "district": "영등포구",
      "dong": "",
      "type": "재건축",
      "stage": "주택재건축사업",
      "stage_idx": 0,
      "lat": 37.52389385046969,
      "lng": 126.8900726073999,
      "area_m2": 29428,
      "units": 0,
      "contractor": "",
      "stage_date": "",
      "notes": "",
      "subway": "",
      "hangang": false,
      "completion_est": "",
      "ref_note": ""
    },
    {
      "id": "api_865",
      "name": "남구로역세권 공공임대주택 도시정비형 재개발정비구역",
      "region": "서울",
      "district": "구로구",
      "dong": "",
      "type": "재개발",
      "stage": "도시환경정비사업구역",
      "stage_idx": 0,
      "lat": 37.485879980187256,
      "lng": 126.89450570559502,
      "area_m2": 0,
      "units": 0,
      "contractor": "",
      "stage_date": "",
      "notes": "",
      "subway": "",
      "hangang": false,
      "completion_est": "",
      "ref_note": ""
    },
    {
      "id": "api_867",
      "name": "국화아파트 재건축정비구역",
      "region": "서울",
      "district": "영등포구",
      "dong": "",
      "type": "재건축",
      "stage": "재건축사업구역",
      "stage_idx": 0,
      "lat": 37.52506652154538,
      "lng": 126.88998744998756,
      "area_m2": 0,
      "units": 0,
      "contractor": "",
      "stage_date": "",
      "notes": "",
      "subway": "",
      "hangang": false,
      "completion_est": "",
      "ref_note": ""
    },
    {
      "id": "api_869",
      "name": "서울역-서대문 1.2",
      "region": "서울",
      "district": "중구",
      "dong": "",
      "type": "재개발",
      "stage": "도시환경정비사업지구",
      "stage_idx": 0,
      "lat": 37.56201042863766,
      "lng": 127.00599657970189,
      "area_m2": 1109,
      "units": 0,
      "contractor": "",
      "stage_date": "",
      "notes": "",
      "subway": "",
      "hangang": false,
      "completion_est": "",
      "ref_note": ""
    },
    {
      "id": "api_870",
      "name": "문래동2·3가B 도시정비형 재개발구역 ",
      "region": "서울",
      "district": "영등포구",
      "dong": "",
      "type": "재개발",
      "stage": "도시환경정비사업구역",
      "stage_idx": 0,
      "lat": 37.534524886340876,
      "lng": 126.89553702148726,
      "area_m2": 0,
      "units": 0,
      "contractor": "",
      "stage_date": "",
      "notes": "",
      "subway": "",
      "hangang": false,
      "completion_est": "",
      "ref_note": ""
    },
    {
      "id": "api_874",
      "name": "서소문5",
      "region": "서울",
      "district": "중구",
      "dong": "",
      "type": "재개발",
      "stage": "도시환경정비사업지구",
      "stage_idx": 0,
      "lat": 37.5686757583015,
      "lng": 126.99009647128979,
      "area_m2": 2917,
      "units": 0,
      "contractor": "",
      "stage_date": "",
      "notes": "",
      "subway": "",
      "hangang": false,
      "completion_est": "",
      "ref_note": ""
    },
    {
      "id": "api_875",
      "name": "서소문6",
      "region": "서울",
      "district": "중구",
      "dong": "",
      "type": "재개발",
      "stage": "도시환경정비사업지구",
      "stage_idx": 0,
      "lat": 37.564299842788365,
      "lng": 127.00028241196542,
      "area_m2": 2594,
      "units": 0,
      "contractor": "",
      "stage_date": "",
      "notes": "",
      "subway": "",
      "hangang": false,
      "completion_est": "",
      "ref_note": ""
    },
    {
      "id": "api_876",
      "name": "서소문8-1",
      "region": "서울",
      "district": "중구",
      "dong": "",
      "type": "재개발",
      "stage": "도시환경정비사업지구",
      "stage_idx": 0,
      "lat": 37.57278118513314,
      "lng": 127.00516857107517,
      "area_m2": 694,
      "units": 0,
      "contractor": "",
      "stage_date": "",
      "notes": "",
      "subway": "",
      "hangang": false,
      "completion_est": "",
      "ref_note": ""
    },
    {
      "id": "api_877",
      "name": "서소문8-2",
      "region": "서울",
      "district": "중구",
      "dong": "",
      "type": "재개발",
      "stage": "도시환경정비사업지구",
      "stage_idx": 0,
      "lat": 37.556465916188564,
      "lng": 127.00132366554381,
      "area_m2": 1208,
      "units": 0,
      "contractor": "",
      "stage_date": "",
      "notes": "",
      "subway": "",
      "hangang": false,
      "completion_est": "",
      "ref_note": ""
    },
    {
      "id": "api_878",
      "name": "서소문9",
      "region": "서울",
      "district": "중구",
      "dong": "",
      "type": "재개발",
      "stage": "도시환경정비사업지구",
      "stage_idx": 0,
      "lat": 37.55797147788033,
      "lng": 127.00761008872696,
      "area_m2": 4253,
      "units": 0,
      "contractor": "",
      "stage_date": "",
      "notes": "",
      "subway": "",
      "hangang": false,
      "completion_est": "",
      "ref_note": ""
    },
    {
      "id": "api_895",
      "name": "신길우성2차·우창아파트 재건축 정비사업",
      "region": "서울",
      "district": "영등포구",
      "dong": "",
      "type": "재건축",
      "stage": "재건축사업구역",
      "stage_idx": 0,
      "lat": 37.52628532834079,
      "lng": 126.88670940429041,
      "area_m2": 0,
      "units": 0,
      "contractor": "",
      "stage_date": "",
      "notes": "",
      "subway": "",
      "hangang": false,
      "completion_est": "",
      "ref_note": ""
    },
    {
      "id": "api_896",
      "name": "제기 도시정비형 재개발구역",
      "region": "서울",
      "district": "동대문구",
      "dong": "",
      "type": "재개발",
      "stage": "도시환경정비사업구역",
      "stage_idx": 0,
      "lat": 37.57215907174973,
      "lng": 127.0410428314979,
      "area_m2": 124640,
      "units": 0,
      "contractor": "",
      "stage_date": "",
      "notes": "",
      "subway": "",
      "hangang": false,
      "completion_est": "",
      "ref_note": ""
    },
    {
      "id": "api_898",
      "name": "신정1재정비촉진구역",
      "region": "서울",
      "district": "양천구",
      "dong": "",
      "type": "재개발",
      "stage": "주택재개발사업구역",
      "stage_idx": 0,
      "lat": 37.51403147086207,
      "lng": 126.86405365525819,
      "area_m2": 254260,
      "units": 0,
      "contractor": "",
      "stage_date": "",
      "notes": "",
      "subway": "",
      "hangang": false,
      "completion_est": "",
      "ref_note": ""
    },
    {
      "id": "api_899",
      "name": "천왕역세권 공공임대주택 건립관련 도시환경정비사업",
      "region": "서울",
      "district": "구로구",
      "dong": "",
      "type": "재개발",
      "stage": "도시환경정비사업구역",
      "stage_idx": 0,
      "lat": 37.48735532355196,
      "lng": 126.87996858430864,
      "area_m2": 10451,
      "units": 0,
      "contractor": "",
      "stage_date": "",
      "notes": "",
      "subway": "",
      "hangang": false,
      "completion_est": "",
      "ref_note": ""
    },
    {
      "id": "api_900",
      "name": "둔촌동 삼익빌라 주택재건축정비사업",
      "region": "서울",
      "district": "강동구",
      "dong": "",
      "type": "재건축",
      "stage": "주택재건축사업",
      "stage_idx": 0,
      "lat": 37.5207038812423,
      "lng": 127.11584803742814,
      "area_m2": 9914,
      "units": 0,
      "contractor": "",
      "stage_date": "",
      "notes": "",
      "subway": "",
      "hangang": false,
      "completion_est": "",
      "ref_note": ""
    },
    {
      "id": "api_901",
      "name": "면목3 주택재건축구역",
      "region": "서울",
      "district": "중랑구",
      "dong": "",
      "type": "재건축",
      "stage": "주택재건축사업",
      "stage_idx": 0,
      "lat": 37.598088661522794,
      "lng": 127.08389722888478,
      "area_m2": 68255,
      "units": 0,
      "contractor": "",
      "stage_date": "",
      "notes": "",
      "subway": "",
      "hangang": false,
      "completion_est": "",
      "ref_note": ""
    },
    {
      "id": "api_902",
      "name": "이문1재정비촉진구역",
      "region": "서울",
      "district": "동대문구",
      "dong": "",
      "type": "재개발",
      "stage": "주택재개발사업구역",
      "stage_idx": 0,
      "lat": 37.57793851006932,
      "lng": 127.0462072019552,
      "area_m2": 144964,
      "units": 0,
      "contractor": "",
      "stage_date": "",
      "notes": "",
      "subway": "",
      "hangang": false,
      "completion_est": "",
      "ref_note": ""
    },
    {
      "id": "api_903",
      "name": "이문3(3-1) 재정비촉진구역",
      "region": "서울",
      "district": "동대문구",
      "dong": "",
      "type": "재개발",
      "stage": "주택재개발사업구역",
      "stage_idx": 0,
      "lat": 37.577447048723506,
      "lng": 127.03253875995621,
      "area_m2": 133505,
      "units": 0,
      "contractor": "",
      "stage_date": "",
      "notes": "",
      "subway": "",
      "hangang": false,
      "completion_est": "",
      "ref_note": ""
    },
    {
      "id": "api_905",
      "name": "장위10구역 ",
      "region": "서울",
      "district": "성북구",
      "dong": "",
      "type": "재개발",
      "stage": "주택재개발사업구역",
      "stage_idx": 0,
      "lat": 37.581796823330784,
      "lng": 127.01466613294134,
      "area_m2": 94072,
      "units": 0,
      "contractor": "",
      "stage_date": "",
      "notes": "",
      "subway": "",
      "hangang": false,
      "completion_est": "",
      "ref_note": ""
    },
    {
      "id": "api_906",
      "name": "오류2동 147번지 일대 주거환경관리 정비구역 ",
      "region": "서울",
      "district": "구로구",
      "dong": "",
      "type": "재개발",
      "stage": "주거환경관리사업",
      "stage_idx": 0,
      "lat": 37.49442533539441,
      "lng": 126.87902130835182,
      "area_m2": 178630,
      "units": 0,
      "contractor": "",
      "stage_date": "",
      "notes": "",
      "subway": "",
      "hangang": false,
      "completion_est": "",
      "ref_note": ""
    },
    {
      "id": "api_907",
      "name": "신길10재정비촉진구역",
      "region": "서울",
      "district": "영등포구",
      "dong": "",
      "type": "재개발",
      "stage": "주택재건축사업",
      "stage_idx": 0,
      "lat": 37.525255307104096,
      "lng": 126.90216502252889,
      "area_m2": 32234,
      "units": 0,
      "contractor": "",
      "stage_date": "",
      "notes": "",
      "subway": "",
      "hangang": false,
      "completion_est": "",
      "ref_note": ""
    },
    {
      "id": "api_908",
      "name": "신문로제2구역 제8지구 도시정비형 재개발사업",
      "region": "서울",
      "district": "종로구",
      "dong": "",
      "type": "재개발",
      "stage": "도시환경정비사업구역",
      "stage_idx": 0,
      "lat": 37.59801967259299,
      "lng": 126.97312715754265,
      "area_m2": 7052,
      "units": 0,
      "contractor": "",
      "stage_date": "",
      "notes": "",
      "subway": "",
      "hangang": false,
      "completion_est": "",
      "ref_note": ""
    },
    {
      "id": "api_909",
      "name": "홍은제14 주택재개발정비구역",
      "region": "서울",
      "district": "서대문구",
      "dong": "",
      "type": "재개발",
      "stage": "주택재개발사업구역",
      "stage_idx": 0,
      "lat": 37.57338975322779,
      "lng": 126.94241449019036,
      "area_m2": 22882,
      "units": 0,
      "contractor": "",
      "stage_date": "",
      "notes": "",
      "subway": "",
      "hangang": false,
      "completion_est": "",
      "ref_note": ""
    },
    {
      "id": "api_910",
      "name": "상봉7재정비촉진구역",
      "region": "서울",
      "district": "중랑구",
      "dong": "",
      "type": "재개발",
      "stage": "도시환경정비사업구역",
      "stage_idx": 0,
      "lat": 37.60275306498643,
      "lng": 127.1002584804253,
      "area_m2": 14990,
      "units": 0,
      "contractor": "",
      "stage_date": "",
      "notes": "",
      "subway": "",
      "hangang": false,
      "completion_est": "",
      "ref_note": ""
    },
    {
      "id": "api_935",
      "name": "순화 도시정비형 재개발구역",
      "region": "서울",
      "district": "중구",
      "dong": "",
      "type": "재개발",
      "stage": "도시환경정비사업구역",
      "stage_idx": 0,
      "lat": 37.55841340633018,
      "lng": 126.98893888006745,
      "area_m2": 15092,
      "units": 0,
      "contractor": "",
      "stage_date": "",
      "notes": "",
      "subway": "",
      "hangang": false,
      "completion_est": "",
      "ref_note": ""
    },
    {
      "id": "api_936",
      "name": "순화 도시정비형 재개발구역 제1-2지구",
      "region": "서울",
      "district": "중구",
      "dong": "",
      "type": "재개발",
      "stage": "도시환경정비사업구역",
      "stage_idx": 0,
      "lat": 37.570247239104226,
      "lng": 126.99608390290376,
      "area_m2": 1979,
      "units": 0,
      "contractor": "",
      "stage_date": "",
      "notes": "",
      "subway": "",
      "hangang": false,
      "completion_est": "",
      "ref_note": ""
    },
    {
      "id": "api_937",
      "name": "삼선제5구역 주택재개발 정비사업",
      "region": "서울",
      "district": "성북구",
      "dong": "",
      "type": "재개발",
      "stage": "주택재개발사업구역",
      "stage_idx": 0,
      "lat": 37.587833005340606,
      "lng": 127.01312287329793,
      "area_m2": 63936,
      "units": 0,
      "contractor": "",
      "stage_date": "",
      "notes": "",
      "subway": "",
      "hangang": false,
      "completion_est": "",
      "ref_note": ""
    },
    {
      "id": "api_938",
      "name": "동선제2구역 주택재개발정비사업",
      "region": "서울",
      "district": "성북구",
      "dong": "",
      "type": "재개발",
      "stage": "주택재개발사업구역",
      "stage_idx": 0,
      "lat": 37.587145726954965,
      "lng": 127.02226174507496,
      "area_m2": 15637,
      "units": 0,
      "contractor": "",
      "stage_date": "",
      "notes": "",
      "subway": "",
      "hangang": false,
      "completion_est": "",
      "ref_note": ""
    },
    {
      "id": "api_940",
      "name": "이문1재정비촉진구역",
      "region": "서울",
      "district": "동대문구",
      "dong": "",
      "type": "재개발",
      "stage": "주택재개발사업구역",
      "stage_idx": 0,
      "lat": 37.58123103430529,
      "lng": 127.0314284963554,
      "area_m2": 144856,
      "units": 0,
      "contractor": "",
      "stage_date": "",
      "notes": "",
      "subway": "",
      "hangang": false,
      "completion_est": "",
      "ref_note": ""
    },
    {
      "id": "api_941",
      "name": "잠실진주아파트 재건축사업",
      "region": "서울",
      "district": "송파구",
      "dong": "",
      "type": "재건축",
      "stage": "재건축사업구역",
      "stage_idx": 0,
      "lat": 37.50696721462397,
      "lng": 127.09869422318238,
      "area_m2": 112558,
      "units": 0,
      "contractor": "",
      "stage_date": "",
      "notes": "",
      "subway": "",
      "hangang": false,
      "completion_est": "",
      "ref_note": ""
    },
    {
      "id": "api_942",
      "name": "신촌지역(서대문)도시정비형 재개발구역",
      "region": "서울",
      "district": "서대문구",
      "dong": "",
      "type": "재개발",
      "stage": "도시환경정비사업구역",
      "stage_idx": 0,
      "lat": 37.57492165121718,
      "lng": 126.94232838724325,
      "area_m2": 4597,
      "units": 0,
      "contractor": "",
      "stage_date": "",
      "notes": "",
      "subway": "",
      "hangang": false,
      "completion_est": "",
      "ref_note": ""
    },
    {
      "id": "api_943",
      "name": "문래동1가A 도시정비형 재개발구역 ",
      "region": "서울",
      "district": "영등포구",
      "dong": "",
      "type": "재개발",
      "stage": "도시환경정비사업구역",
      "stage_idx": 0,
      "lat": 37.52151836938043,
      "lng": 126.89744939725753,
      "area_m2": 0,
      "units": 0,
      "contractor": "",
      "stage_date": "",
      "notes": "",
      "subway": "",
      "hangang": false,
      "completion_est": "",
      "ref_note": ""
    },
    {
      "id": "api_944",
      "name": "문래동1가B 도시정비형 재개발구역 ",
      "region": "서울",
      "district": "영등포구",
      "dong": "",
      "type": "재개발",
      "stage": "도시환경정비사업구역",
      "stage_idx": 0,
      "lat": 37.5167869192752,
      "lng": 126.90086343019871,
      "area_m2": 0,
      "units": 0,
      "contractor": "",
      "stage_date": "",
      "notes": "",
      "subway": "",
      "hangang": false,
      "completion_est": "",
      "ref_note": ""
    },
    {
      "id": "api_964",
      "name": "문래동2가A 도시정비형 재개발구역 ",
      "region": "서울",
      "district": "영등포구",
      "dong": "",
      "type": "재개발",
      "stage": "도시환경정비사업구역",
      "stage_idx": 0,
      "lat": 37.52801759869982,
      "lng": 126.8904295461315,
      "area_m2": 0,
      "units": 0,
      "contractor": "",
      "stage_date": "",
      "notes": "",
      "subway": "",
      "hangang": false,
      "completion_est": "",
      "ref_note": ""
    },
    {
      "id": "api_965",
      "name": "문래동2가B 도시정비형 재개발구역 ",
      "region": "서울",
      "district": "영등포구",
      "dong": "",
      "type": "재개발",
      "stage": "도시환경정비사업구역",
      "stage_idx": 0,
      "lat": 37.519979069391034,
      "lng": 126.88832859213765,
      "area_m2": 0,
      "units": 0,
      "contractor": "",
      "stage_date": "",
      "notes": "",
      "subway": "",
      "hangang": false,
      "completion_est": "",
      "ref_note": ""
    },
    {
      "id": "api_966",
      "name": "문래동4가 도시환경정비구역",
      "region": "서울",
      "district": "영등포구",
      "dong": "",
      "type": "재개발",
      "stage": "도시환경정비사업구역",
      "stage_idx": 0,
      "lat": 37.53292391876986,
      "lng": 126.89878726958905,
      "area_m2": 94087,
      "units": 0,
      "contractor": "",
      "stage_date": "",
      "notes": "",
      "subway": "",
      "hangang": false,
      "completion_est": "",
      "ref_note": ""
    },
    {
      "id": "api_967",
      "name": "북아현2 재정비촉진구역 ",
      "region": "서울",
      "district": "서대문구",
      "dong": "",
      "type": "재개발",
      "stage": "주택재개발사업구역",
      "stage_idx": 0,
      "lat": 37.58756440718731,
      "lng": 126.93331783260993,
      "area_m2": 124270,
      "units": 0,
      "contractor": "",
      "stage_date": "",
      "notes": "",
      "subway": "",
      "hangang": false,
      "completion_est": "",
      "ref_note": ""
    },
    {
      "id": "api_968",
      "name": "효창제6구역주택재개발정비사업",
      "region": "서울",
      "district": "용산구",
      "dong": "",
      "type": "재개발",
      "stage": "주택재개발사업구역",
      "stage_idx": 0,
      "lat": 37.532166260839304,
      "lng": 126.97955414739023,
      "area_m2": 18171,
      "units": 0,
      "contractor": "",
      "stage_date": "",
      "notes": "",
      "subway": "",
      "hangang": false,
      "completion_est": "",
      "ref_note": ""
    },
    {
      "id": "api_969",
      "name": "방화5재정비촉진구역 (주택재건축사업) ",
      "region": "서울",
      "district": "강서구",
      "dong": "",
      "type": "재건축",
      "stage": "주택재건축사업",
      "stage_idx": 0,
      "lat": 37.56037088001464,
      "lng": 126.83966642686403,
      "area_m2": 99520,
      "units": 0,
      "contractor": "",
      "stage_date": "",
      "notes": "",
      "subway": "",
      "hangang": false,
      "completion_est": "",
      "ref_note": ""
    },
    {
      "id": "api_971",
      "name": "수색4재정비촉진구역(주택재개발사업)",
      "region": "서울",
      "district": "은평구",
      "dong": "",
      "type": "재개발",
      "stage": "주택재개발사업구역",
      "stage_idx": 0,
      "lat": 37.60441167933057,
      "lng": 126.92398924424647,
      "area_m2": 61889,
      "units": 0,
      "contractor": "",
      "stage_date": "",
      "notes": "",
      "subway": "",
      "hangang": false,
      "completion_est": "",
      "ref_note": ""
    },
    {
      "id": "api_972",
      "name": "가재울6 재정비촉진구역",
      "region": "서울",
      "district": "서대문구",
      "dong": "",
      "type": "재개발",
      "stage": "주택재개발사업구역",
      "stage_idx": 0,
      "lat": 37.582979268506705,
      "lng": 126.94555683425799,
      "area_m2": 48084,
      "units": 0,
      "contractor": "",
      "stage_date": "",
      "notes": "",
      "subway": "",
      "hangang": false,
      "completion_est": "",
      "ref_note": ""
    },
    {
      "id": "api_987",
      "name": "도시정비형 재개발사업구역",
      "region": "서울",
      "district": "중구",
      "dong": "",
      "type": "재개발",
      "stage": "재개발사업지구",
      "stage_idx": 0,
      "lat": 37.56168976013806,
      "lng": 126.99395730500744,
      "area_m2": 2918,
      "units": 0,
      "contractor": "",
      "stage_date": "",
      "notes": "",
      "subway": "",
      "hangang": false,
      "completion_est": "",
      "ref_note": ""
    },
    {
      "id": "api_990",
      "name": "중구 다산권 성곽마을 관리형 주거환경개선사업",
      "region": "서울",
      "district": "중구",
      "dong": "",
      "type": "재개발",
      "stage": "주거환경개선사업구역",
      "stage_idx": 0,
      "lat": 37.568016563080256,
      "lng": 127.00779599228845,
      "area_m2": 0,
      "units": 0,
      "contractor": "",
      "stage_date": "",
      "notes": "",
      "subway": "",
      "hangang": false,
      "completion_est": "",
      "ref_note": ""
    },
    {
      "id": "api_991",
      "name": "서울특별시 마포구 창전동 27-19호 일대",
      "region": "서울",
      "district": "마포구",
      "dong": "",
      "type": "재개발",
      "stage": "주택재건축사업",
      "stage_idx": 0,
      "lat": 37.56796637574981,
      "lng": 126.90560842236242,
      "area_m2": 14770,
      "units": 0,
      "contractor": "",
      "stage_date": "",
      "notes": "",
      "subway": "",
      "hangang": false,
      "completion_est": "",
      "ref_note": ""
    },
    {
      "id": "api_1013",
      "name": "개포시영아파트 중심상가재건축정비사업",
      "region": "서울",
      "district": "강남구",
      "dong": "",
      "type": "재건축",
      "stage": "재건축사업구역",
      "stage_idx": 0,
      "lat": 37.52147390421121,
      "lng": 127.05395617758595,
      "area_m2": 0,
      "units": 0,
      "contractor": "",
      "stage_date": "",
      "notes": "",
      "subway": "",
      "hangang": false,
      "completion_est": "",
      "ref_note": ""
    },
    {
      "id": "api_1016",
      "name": "국제빌딩주변 도시정비형 재개발구역",
      "region": "서울",
      "district": "용산구",
      "dong": "",
      "type": "재개발",
      "stage": "도시환경정비사업구역",
      "stage_idx": 0,
      "lat": 37.52502081336736,
      "lng": 126.97837323459518,
      "area_m2": 109965,
      "units": 0,
      "contractor": "",
      "stage_date": "",
      "notes": "",
      "subway": "",
      "hangang": false,
      "completion_est": "",
      "ref_note": ""
    },
    {
      "id": "api_1017",
      "name": "4구역",
      "region": "서울",
      "district": "용산구",
      "dong": "",
      "type": "재개발",
      "stage": "도시환경정비사업구역",
      "stage_idx": 0,
      "lat": 37.537966039328914,
      "lng": 126.97158444423164,
      "area_m2": 53066,
      "units": 0,
      "contractor": "",
      "stage_date": "",
      "notes": "",
      "subway": "",
      "hangang": false,
      "completion_est": "",
      "ref_note": ""
    },
    {
      "id": "api_1018",
      "name": "응암제11구역 주택재개발정비사업",
      "region": "서울",
      "district": "은평구",
      "dong": "",
      "type": "재개발",
      "stage": "주택재개발사업구역",
      "stage_idx": 0,
      "lat": 37.59846580693096,
      "lng": 126.92036402251993,
      "area_m2": 36242,
      "units": 0,
      "contractor": "",
      "stage_date": "",
      "notes": "",
      "subway": "",
      "hangang": false,
      "completion_est": "",
      "ref_note": ""
    },
    {
      "id": "api_1020",
      "name": "서소문8-3",
      "region": "서울",
      "district": "중구",
      "dong": "",
      "type": "재개발",
      "stage": "도시환경정비사업지구",
      "stage_idx": 0,
      "lat": 37.56086091206911,
      "lng": 127.00752622580646,
      "area_m2": 1172,
      "units": 0,
      "contractor": "",
      "stage_date": "",
      "notes": "",
      "subway": "",
      "hangang": false,
      "completion_est": "",
      "ref_note": ""
    },
    {
      "id": "api_1021",
      "name": "갈현제1구역 주택재개발정비사업",
      "region": "서울",
      "district": "은평구",
      "dong": "",
      "type": "재개발",
      "stage": "주택재개발사업구역",
      "stage_idx": 0,
      "lat": 37.601538109575145,
      "lng": 126.92772499929242,
      "area_m2": 238850,
      "units": 0,
      "contractor": "",
      "stage_date": "",
      "notes": "",
      "subway": "",
      "hangang": false,
      "completion_est": "",
      "ref_note": ""
    },
    {
      "id": "api_1022",
      "name": "용답동 108-1번지 일대 주택재개발정비사업",
      "region": "서울",
      "district": "성동구",
      "dong": "",
      "type": "재개발",
      "stage": "주택재개발사업구역",
      "stage_idx": 0,
      "lat": 37.555824073330434,
      "lng": 127.03106299622743,
      "area_m2": 73341,
      "units": 0,
      "contractor": "",
      "stage_date": "",
      "notes": "",
      "subway": "",
      "hangang": false,
      "completion_est": "",
      "ref_note": ""
    },
    {
      "id": "api_1023",
      "name": "노량진6재정비촉진구역 ",
      "region": "서울",
      "district": "동작구",
      "dong": "",
      "type": "재개발",
      "stage": "주택재개발사업구역",
      "stage_idx": 0,
      "lat": 37.50858666749156,
      "lng": 126.93210531486469,
      "area_m2": 72809,
      "units": 0,
      "contractor": "",
      "stage_date": "",
      "notes": "",
      "subway": "",
      "hangang": false,
      "completion_est": "",
      "ref_note": ""
    },
    {
      "id": "api_1038",
      "name": "북아현2 재정비촉진구역 ",
      "region": "서울",
      "district": "서대문구",
      "dong": "",
      "type": "재개발",
      "stage": "주택재개발사업구역",
      "stage_idx": 0,
      "lat": 37.58624396418244,
      "lng": 126.94035565626417,
      "area_m2": 120055,
      "units": 0,
      "contractor": "",
      "stage_date": "",
      "notes": "",
      "subway": "",
      "hangang": false,
      "completion_est": "",
      "ref_note": ""
    },
    {
      "id": "api_1040",
      "name": "한강맨션아파트 주택재건축정비구역",
      "region": "서울",
      "district": "용산구",
      "dong": "",
      "type": "재건축",
      "stage": "주택재건축사업",
      "stage_idx": 0,
      "lat": 37.5346157915453,
      "lng": 126.9878070580299,
      "area_m2": 84096,
      "units": 0,
      "contractor": "",
      "stage_date": "",
      "notes": "",
      "subway": "",
      "hangang": false,
      "completion_est": "",
      "ref_note": ""
    },
    {
      "id": "api_1041",
      "name": "상계4재정비촉진구역 ",
      "region": "서울",
      "district": "노원구",
      "dong": "",
      "type": "재개발",
      "stage": "주택재개발사업구역",
      "stage_idx": 0,
      "lat": 37.64726539410225,
      "lng": 127.06206867649543,
      "area_m2": 39960,
      "units": 0,
      "contractor": "",
      "stage_date": "",
      "notes": "",
      "subway": "",
      "hangang": false,
      "completion_est": "",
      "ref_note": ""
    },
    {
      "id": "api_1042",
      "name": "가락삼익맨숀 아파트 재건축정비사업",
      "region": "서울",
      "district": "송파구",
      "dong": "",
      "type": "재건축",
      "stage": "주택재건축사업",
      "stage_idx": 0,
      "lat": 37.523846900171925,
      "lng": 127.10746268746429,
      "area_m2": 62059,
      "units": 0,
      "contractor": "",
      "stage_date": "",
      "notes": "",
      "subway": "",
      "hangang": false,
      "completion_est": "",
      "ref_note": ""
    },
    {
      "id": "api_1043",
      "name": "수정아파트 재건축정비사업",
      "region": "서울",
      "district": "양천구",
      "dong": "",
      "type": "재건축",
      "stage": "주택재건축사업",
      "stage_idx": 0,
      "lat": 37.51418391228799,
      "lng": 126.8744041174524,
      "area_m2": 0,
      "units": 0,
      "contractor": "",
      "stage_date": "",
      "notes": "",
      "subway": "",
      "hangang": false,
      "completion_est": "",
      "ref_note": ""
    },
    {
      "id": "api_1044",
      "name": "개포시영아파트 주택재건축정비사업",
      "region": "서울",
      "district": "강남구",
      "dong": "",
      "type": "재건축",
      "stage": "주택재건축사업",
      "stage_idx": 0,
      "lat": 37.514772054524364,
      "lng": 127.04399912296465,
      "area_m2": 115910,
      "units": 0,
      "contractor": "",
      "stage_date": "",
      "notes": "",
      "subway": "",
      "hangang": false,
      "completion_est": "",
      "ref_note": ""
    },
    {
      "id": "api_1046",
      "name": "월계동 487-17일대 주택재건축 정비사업",
      "region": "서울",
      "district": "노원구",
      "dong": "",
      "type": "재건축",
      "stage": "주택재건축사업",
      "stage_idx": 0,
      "lat": 37.65728545725587,
      "lng": 127.0654696865803,
      "area_m2": 14704,
      "units": 0,
      "contractor": "",
      "stage_date": "",
      "notes": "",
      "subway": "",
      "hangang": false,
      "completion_est": "",
      "ref_note": ""
    },
    {
      "id": "api_1047",
      "name": "응암제2구역 주택재개발정비사업",
      "region": "서울",
      "district": "은평구",
      "dong": "",
      "type": "재개발",
      "stage": "주택재개발사업구역",
      "stage_idx": 0,
      "lat": 37.599953155832694,
      "lng": 126.93495715407619,
      "area_m2": 120765,
      "units": 0,
      "contractor": "",
      "stage_date": "",
      "notes": "",
      "subway": "",
      "hangang": false,
      "completion_est": "",
      "ref_note": ""
    },
    {
      "id": "api_1111",
      "name": "가락프라자아파트 주택재건축사업 ",
      "region": "서울",
      "district": "송파구",
      "dong": "",
      "type": "재건축",
      "stage": "주택재건축사업",
      "stage_idx": 0,
      "lat": 37.51735567328724,
      "lng": 127.11490757697622,
      "area_m2": 47807,
      "units": 0,
      "contractor": "",
      "stage_date": "",
      "notes": "",
      "subway": "",
      "hangang": false,
      "completion_est": "",
      "ref_note": ""
    },
    {
      "id": "api_1112",
      "name": "월계동 487-17번지 일대 주택재건축정비사업",
      "region": "서울",
      "district": "노원구",
      "dong": "",
      "type": "재건축",
      "stage": "주택재건축사업",
      "stage_idx": 0,
      "lat": 37.65662702194321,
      "lng": 127.05658352324477,
      "area_m2": 14704,
      "units": 0,
      "contractor": "",
      "stage_date": "",
      "notes": "",
      "subway": "",
      "hangang": false,
      "completion_est": "",
      "ref_note": ""
    },
    {
      "id": "api_1127",
      "name": "성북제2-신월곡1 결합정비사업",
      "region": "서울",
      "district": "성북구",
      "dong": "",
      "type": "재개발",
      "stage": "결합정비구역",
      "stage_idx": 0,
      "lat": 37.58345828909803,
      "lng": 127.02592912293031,
      "area_m2": 129866,
      "units": 0,
      "contractor": "",
      "stage_date": "",
      "notes": "",
      "subway": "",
      "hangang": false,
      "completion_est": "",
      "ref_note": ""
    },
    {
      "id": "api_1128",
      "name": "연희 제1주택재건축정비구역",
      "region": "서울",
      "district": "서대문구",
      "dong": "",
      "type": "재건축",
      "stage": "주택재건축사업",
      "stage_idx": 0,
      "lat": 37.58100088597228,
      "lng": 126.9466683395934,
      "area_m2": 19468,
      "units": 0,
      "contractor": "",
      "stage_date": "",
      "notes": "",
      "subway": "",
      "hangang": false,
      "completion_est": "",
      "ref_note": ""
    },
    {
      "id": "api_1292",
      "name": "대흥제2구역주택재개발사업",
      "region": "서울",
      "district": "마포구",
      "dong": "",
      "type": "재개발",
      "stage": "주택재개발사업구역",
      "stage_idx": 0,
      "lat": 37.57136900915642,
      "lng": 126.9003095018488,
      "area_m2": 62245,
      "units": 0,
      "contractor": "",
      "stage_date": "",
      "notes": "",
      "subway": "",
      "hangang": false,
      "completion_est": "",
      "ref_note": ""
    },
    {
      "id": "api_1541",
      "name": "장위1 재정비촉진구역",
      "region": "서울",
      "district": "성북구",
      "dong": "",
      "type": "재개발",
      "stage": "주택재개발사업지구",
      "stage_idx": 0,
      "lat": 37.59189323229226,
      "lng": 127.0119461475989,
      "area_m2": 80513,
      "units": 0,
      "contractor": "",
      "stage_date": "",
      "notes": "",
      "subway": "",
      "hangang": false,
      "completion_est": "",
      "ref_note": ""
    },
    {
      "id": "api_1975",
      "name": "대흥제2구역 주택재개발사업",
      "region": "서울",
      "district": "마포구",
      "dong": "",
      "type": "재개발",
      "stage": "주택재개발사업구역",
      "stage_idx": 0,
      "lat": 37.57288408679569,
      "lng": 126.89988725684344,
      "area_m2": 62260,
      "units": 0,
      "contractor": "",
      "stage_date": "",
      "notes": "",
      "subway": "",
      "hangang": false,
      "completion_est": "",
      "ref_note": ""
    },
    {
      "id": "api_2081",
      "name": "이문4재정비촉진구역",
      "region": "서울",
      "district": "동대문구",
      "dong": "",
      "type": "재개발",
      "stage": "주택재개발사업구역",
      "stage_idx": 0,
      "lat": 37.57753573192921,
      "lng": 127.04200708116953,
      "area_m2": 151388,
      "units": 0,
      "contractor": "",
      "stage_date": "",
      "notes": "",
      "subway": "",
      "hangang": false,
      "completion_est": "",
      "ref_note": ""
    },
    {
      "id": "api_2082",
      "name": "신길14재정비촉진구역",
      "region": "서울",
      "district": "영등포구",
      "dong": "",
      "type": "재개발",
      "stage": "주택재개발사업구역",
      "stage_idx": 0,
      "lat": 37.52837725651934,
      "lng": 126.90061806244566,
      "area_m2": 27844,
      "units": 0,
      "contractor": "",
      "stage_date": "",
      "notes": "",
      "subway": "",
      "hangang": false,
      "completion_est": "",
      "ref_note": ""
    },
    {
      "id": "api_2083",
      "name": "공평지구<H9>",
      "region": "서울",
      "district": "종로구",
      "dong": "",
      "type": "재개발",
      "stage": "도시환경정비사업구역",
      "stage_idx": 0,
      "lat": 37.58861511571841,
      "lng": 126.97534375300702,
      "area_m2": 127,
      "units": 0,
      "contractor": "",
      "stage_date": "",
      "notes": "",
      "subway": "",
      "hangang": false,
      "completion_est": "",
      "ref_note": ""
    },
    {
      "id": "api_2084",
      "name": "을지로2가 19-1",
      "region": "서울",
      "district": "중구",
      "dong": "",
      "type": "재개발",
      "stage": "도시환경정비사업지구",
      "stage_idx": 0,
      "lat": 37.57317979716382,
      "lng": 126.9912881391906,
      "area_m2": 1477,
      "units": 0,
      "contractor": "",
      "stage_date": "",
      "notes": "",
      "subway": "",
      "hangang": false,
      "completion_est": "",
      "ref_note": ""
    },
    {
      "id": "api_2085",
      "name": "을지로2가 19-3",
      "region": "서울",
      "district": "중구",
      "dong": "",
      "type": "재개발",
      "stage": "도시환경정비사업지구",
      "stage_idx": 0,
      "lat": 37.56387687748391,
      "lng": 127.00453709523676,
      "area_m2": 1477,
      "units": 0,
      "contractor": "",
      "stage_date": "",
      "notes": "",
      "subway": "",
      "hangang": false,
      "completion_est": "",
      "ref_note": ""
    },
    {
      "id": "api_2086",
      "name": "을지로2가 19-4",
      "region": "서울",
      "district": "중구",
      "dong": "",
      "type": "재개발",
      "stage": "도시환경정비사업지구",
      "stage_idx": 0,
      "lat": 37.56837720099162,
      "lng": 127.00752062501752,
      "area_m2": 1477,
      "units": 0,
      "contractor": "",
      "stage_date": "",
      "notes": "",
      "subway": "",
      "hangang": false,
      "completion_est": "",
      "ref_note": ""
    },
    {
      "id": "api_2087",
      "name": "을지로2가 20-1",
      "region": "서울",
      "district": "중구",
      "dong": "",
      "type": "재개발",
      "stage": "도시환경정비사업지구",
      "stage_idx": 0,
      "lat": 37.56149469546118,
      "lng": 126.99639505611924,
      "area_m2": 0,
      "units": 0,
      "contractor": "",
      "stage_date": "",
      "notes": "",
      "subway": "",
      "hangang": false,
      "completion_est": "",
      "ref_note": ""
    },
    {
      "id": "api_2088",
      "name": "을지로2가 20-2",
      "region": "서울",
      "district": "중구",
      "dong": "",
      "type": "재개발",
      "stage": "도시환경정비사업지구",
      "stage_idx": 0,
      "lat": 37.563836383694486,
      "lng": 126.99905227370186,
      "area_m2": 0,
      "units": 0,
      "contractor": "",
      "stage_date": "",
      "notes": "",
      "subway": "",
      "hangang": false,
      "completion_est": "",
      "ref_note": ""
    },
    {
      "id": "api_2089",
      "name": "을지로2가 18-5",
      "region": "서울",
      "district": "중구",
      "dong": "",
      "type": "재개발",
      "stage": "도시환경정비사업지구",
      "stage_idx": 0,
      "lat": 37.554917636465106,
      "lng": 126.99856183990407,
      "area_m2": 1477,
      "units": 0,
      "contractor": "",
      "stage_date": "",
      "notes": "",
      "subway": "",
      "hangang": false,
      "completion_est": "",
      "ref_note": ""
    },
    {
      "id": "api_2091",
      "name": "신촌지역(마포) 4-15지구 도시정비형 재개발구역",
      "region": "서울",
      "district": "마포구",
      "dong": "",
      "type": "재개발",
      "stage": "도시환경정비사업구역",
      "stage_idx": 0,
      "lat": 37.56397945528277,
      "lng": 126.91780097589441,
      "area_m2": 3258,
      "units": 0,
      "contractor": "",
      "stage_date": "",
      "notes": "",
      "subway": "",
      "hangang": false,
      "completion_est": "",
      "ref_note": ""
    },
    {
      "id": "api_2092",
      "name": "마포로1 도시정비형 재개발구역",
      "region": "서울",
      "district": "마포구",
      "dong": "",
      "type": "재개발",
      "stage": "도시환경정비사업구역",
      "stage_idx": 0,
      "lat": 37.57005807679795,
      "lng": 126.89908196587672,
      "area_m2": 249777,
      "units": 0,
      "contractor": "",
      "stage_date": "",
      "notes": "",
      "subway": "",
      "hangang": false,
      "completion_est": "",
      "ref_note": ""
    },
    {
      "id": "api_2093",
      "name": "마포로1 도시정비형 재개발구역 제28.29지구",
      "region": "서울",
      "district": "마포구",
      "dong": "",
      "type": "재개발",
      "stage": "도시환경정비사업지구",
      "stage_idx": 0,
      "lat": 37.56797986247404,
      "lng": 126.90578121029674,
      "area_m2": 3749,
      "units": 0,
      "contractor": "",
      "stage_date": "",
      "notes": "",
      "subway": "",
      "hangang": false,
      "completion_est": "",
      "ref_note": ""
    },
    {
      "id": "api_2095",
      "name": "을지로3가 도시정비형 재개발구역 제12지구",
      "region": "서울",
      "district": "중구",
      "dong": "",
      "type": "재개발",
      "stage": "재개발사업구역",
      "stage_idx": 0,
      "lat": 37.56264866149864,
      "lng": 127.00585385795908,
      "area_m2": 3924,
      "units": 0,
      "contractor": "",
      "stage_date": "",
      "notes": "",
      "subway": "",
      "hangang": false,
      "completion_est": "",
      "ref_note": ""
    },
    {
      "id": "api_2097",
      "name": "상계주공5단지 재건축정비구역",
      "region": "서울",
      "district": "노원구",
      "dong": "",
      "type": "재건축",
      "stage": "재건축사업구역",
      "stage_idx": 0,
      "lat": 37.65084586988926,
      "lng": 127.04985165670644,
      "area_m2": 0,
      "units": 0,
      "contractor": "",
      "stage_date": "",
      "notes": "",
      "subway": "",
      "hangang": false,
      "completion_est": "",
      "ref_note": ""
    },
    {
      "id": "api_2100",
      "name": "고덕주공3단지아파트 주택재건축 정비구역",
      "region": "서울",
      "district": "강동구",
      "dong": "",
      "type": "재건축",
      "stage": "주택재건축사업",
      "stage_idx": 0,
      "lat": 37.5274222878844,
      "lng": 127.12434597115191,
      "area_m2": 211408,
      "units": 0,
      "contractor": "",
      "stage_date": "",
      "notes": "",
      "subway": "",
      "hangang": false,
      "completion_est": "",
      "ref_note": ""
    },
    {
      "id": "api_2101",
      "name": "마포로1구역 제12.13지구 도시정비형 재개발사업",
      "region": "서울",
      "district": "마포구",
      "dong": "",
      "type": "재개발",
      "stage": "도시환경정비사업구역",
      "stage_idx": 0,
      "lat": 37.56112071290669,
      "lng": 126.90814741403246,
      "area_m2": 2568,
      "units": 0,
      "contractor": "",
      "stage_date": "",
      "notes": "",
      "subway": "",
      "hangang": false,
      "completion_est": "",
      "ref_note": ""
    },
    {
      "id": "api_2102",
      "name": "면목1 역세권 장기전세주택 도시환경정비사업",
      "region": "서울",
      "district": "중랑구",
      "dong": "",
      "type": "재개발",
      "stage": "도시환경정비사업구역",
      "stage_idx": 0,
      "lat": 37.60065201659991,
      "lng": 127.09635978014829,
      "area_m2": 3858,
      "units": 0,
      "contractor": "",
      "stage_date": "",
      "notes": "",
      "subway": "",
      "hangang": false,
      "completion_est": "",
      "ref_note": ""
    },
    {
      "id": "api_2103",
      "name": "송파미성아파트 재건축정비구역",
      "region": "서울",
      "district": "송파구",
      "dong": "",
      "type": "재건축",
      "stage": "재건축사업구역",
      "stage_idx": 0,
      "lat": 37.52174427762177,
      "lng": 127.09856593775815,
      "area_m2": 0,
      "units": 0,
      "contractor": "",
      "stage_date": "",
      "notes": "",
      "subway": "",
      "hangang": false,
      "completion_est": "",
      "ref_note": ""
    },
    {
      "id": "api_2104",
      "name": "사당2 주택재건축 정비사업",
      "region": "서울",
      "district": "동작구",
      "dong": "",
      "type": "재건축",
      "stage": "주택재건축사업",
      "stage_idx": 0,
      "lat": 37.50240591038459,
      "lng": 126.941688593523,
      "area_m2": 49449,
      "units": 0,
      "contractor": "",
      "stage_date": "",
      "notes": "",
      "subway": "",
      "hangang": false,
      "completion_est": "",
      "ref_note": ""
    },
    {
      "id": "api_2105",
      "name": "신길8재정비촉진구역",
      "region": "서울",
      "district": "영등포구",
      "dong": "",
      "type": "재개발",
      "stage": "주택재개발사업구역",
      "stage_idx": 0,
      "lat": 37.53184280352307,
      "lng": 126.88818015789994,
      "area_m2": 32287,
      "units": 0,
      "contractor": "",
      "stage_date": "",
      "notes": "",
      "subway": "",
      "hangang": false,
      "completion_est": "",
      "ref_note": ""
    },
    {
      "id": "api_2106",
      "name": "가락1차현대아파트 재건축정비사업",
      "region": "서울",
      "district": "송파구",
      "dong": "",
      "type": "재건축",
      "stage": "주택재건축사업",
      "stage_idx": 0,
      "lat": 37.50790620271493,
      "lng": 127.10764093881535,
      "area_m2": 33953,
      "units": 0,
      "contractor": "",
      "stage_date": "",
      "notes": "",
      "subway": "",
      "hangang": false,
      "completion_est": "",
      "ref_note": ""
    },
    {
      "id": "api_2107",
      "name": "강북2재정비촉진구역",
      "region": "서울",
      "district": "강북구",
      "dong": "",
      "type": "재개발",
      "stage": "도시환경정비사업구역",
      "stage_idx": 0,
      "lat": 37.64889855654788,
      "lng": 127.03048608006812,
      "area_m2": 18958,
      "units": 0,
      "contractor": "",
      "stage_date": "",
      "notes": "",
      "subway": "",
      "hangang": false,
      "completion_est": "",
      "ref_note": ""
    },
    {
      "id": "api_2225",
      "name": "응암제1구역 주택재개발정비사업",
      "region": "서울",
      "district": "은평구",
      "dong": "",
      "type": "재개발",
      "stage": "주택재개발사업지구",
      "stage_idx": 0,
      "lat": 37.59707903167634,
      "lng": 126.92231455435888,
      "area_m2": 43938,
      "units": 0,
      "contractor": "",
      "stage_date": "",
      "notes": "",
      "subway": "",
      "hangang": false,
      "completion_est": "",
      "ref_note": ""
    },
    {
      "id": "api_2226",
      "name": "사당3 재건축 정비사업",
      "region": "서울",
      "district": "동작구",
      "dong": "",
      "type": "재건축",
      "stage": "재건축사업구역",
      "stage_idx": 0,
      "lat": 37.50538950722636,
      "lng": 126.93144702863341,
      "area_m2": 30107,
      "units": 0,
      "contractor": "",
      "stage_date": "",
      "notes": "",
      "subway": "",
      "hangang": false,
      "completion_est": "",
      "ref_note": ""
    },
    {
      "id": "api_2227",
      "name": "마포로1구역 제28.29지구 도시정비형 재개발구역",
      "region": "서울",
      "district": "마포구",
      "dong": "",
      "type": "재개발",
      "stage": "도시환경정비사업구역",
      "stage_idx": 0,
      "lat": 37.55469215567641,
      "lng": 126.90213759584339,
      "area_m2": 3678,
      "units": 0,
      "contractor": "",
      "stage_date": "",
      "notes": "",
      "subway": "",
      "hangang": false,
      "completion_est": "",
      "ref_note": ""
    },
    {
      "id": "api_2228",
      "name": "을지로3가 도시정비형 재개발구역 제9지구",
      "region": "서울",
      "district": "중구",
      "dong": "",
      "type": "재개발",
      "stage": "도시환경정비사업구역",
      "stage_idx": 0,
      "lat": 37.561914510484826,
      "lng": 126.99203738367804,
      "area_m2": 1945,
      "units": 0,
      "contractor": "",
      "stage_date": "",
      "notes": "",
      "subway": "",
      "hangang": false,
      "completion_est": "",
      "ref_note": ""
    },
    {
      "id": "api_2230",
      "name": "신동아1.2차아파트 주택재건축 정비사업",
      "region": "서울",
      "district": "강동구",
      "dong": "",
      "type": "재건축",
      "stage": "주택재건축사업",
      "stage_idx": 0,
      "lat": 37.5349060986773,
      "lng": 127.1219937189943,
      "area_m2": 46267,
      "units": 0,
      "contractor": "",
      "stage_date": "",
      "notes": "",
      "subway": "",
      "hangang": false,
      "completion_est": "",
      "ref_note": ""
    },
    {
      "id": "api_2233",
      "name": "영등포 도심 역세권 도시정비형 재개발구역",
      "region": "서울",
      "district": "영등포구",
      "dong": "",
      "type": "재개발",
      "stage": "도시환경정비사업구역",
      "stage_idx": 0,
      "lat": 37.533338375220026,
      "lng": 126.88975904972085,
      "area_m2": 0,
      "units": 0,
      "contractor": "",
      "stage_date": "",
      "notes": "",
      "subway": "",
      "hangang": false,
      "completion_est": "",
      "ref_note": ""
    },