{
  "updated_at": "2026-07-13",
  "source": "seoul_open_api",
  "note": "수도권 실데이터 — 서울 761개·경기 0개 구역 (2026-07-13 갱신)",
  "projects": [
    {
      "id": "api_24",
      "name": "전농7재정비촉진구역 ",
      "region": "서울",
      "district": "동대문구",
      "dong": "",
      "type": "재개발",
      "stage": "주택재개발사업구역",
      "stage_idx": 0,
      "lat": 37.572674767696945,
      "lng": 127.04167120795668,
      "area_m2": 151792,
      "units": 0,
      "contractor": "",
      "stage_date": "",
      "notes": "",
      "subway": "",
      "hangang": false,
      "completion_est": "",
      "ref_note": ""
    },
    {
      "id": "api_25",
      "name": "공덕 제6주택재개발정비사업",
      "region": "서울",
      "district": "마포구",
      "dong": "",
      "type": "재개발",
      "stage": "사업시행인가",
      "stage_idx": 2,
      "lat": 37.560131237907974,
      "lng": 126.9090290468376,
      "area_m2": 11326,
      "units": 0,
      "contractor": "",
      "stage_date": "202404",
      "notes": "",
      "subway": "",
      "hangang": false,
      "completion_est": "",
      "ref_note": ""
    },
    {
      "id": "api_26",
      "name": "사당3재건축정비사업",
      "region": "서울",
      "district": "동작구",
      "dong": "",
      "type": "재건축",
      "stage": "주택재건축사업",
      "stage_idx": 0,
      "lat": 37.510021626164516,
      "lng": 126.9412870435969,
      "area_m2": 30221,
      "units": 0,
      "contractor": "",
      "stage_date": "",
      "notes": "",
      "subway": "",
      "hangang": false,
      "completion_est": "",
      "ref_note": ""
    },
    {
      "id": "api_27",
      "name": "긴등마을 재정비촉진구역",
      "region": "서울",
      "district": "강서구",
      "dong": "",
      "type": "재개발",
      "stage": "주택재건축사업",
      "stage_idx": 0,
      "lat": 37.55089754801913,
      "lng": 126.84632379648582,
      "area_m2": 31668,
      "units": 0,
      "contractor": "",
      "stage_date": "",
      "notes": "",
      "subway": "",
      "hangang": false,
      "completion_est": "",
      "ref_note": ""
    },
    {
      "id": "api_29",
      "name": "신용산역 북측 제1구역 도시정비형 재개발구역",
      "region": "서울",
      "district": "용산구",
      "dong": "",
      "type": "재개발",
      "stage": "도시환경정비사업구역",
      "stage_idx": 0,
      "lat": 37.52658240288877,
      "lng": 126.97670807593897,
      "area_m2": 14057,
      "units": 0,
      "contractor": "",
      "stage_date": "",
      "notes": "",
      "subway": "",
      "hangang": false,
      "completion_est": "",
      "ref_note": ""
    },
    {
      "id": "api_30",
      "name": "신설 제1 주택정비형 공공재개발사업 ",
      "region": "서울",
      "district": "동대문구",
      "dong": "",
      "type": "재개발",
      "stage": "주택재개발사업구역",
      "stage_idx": 0,
      "lat": 37.571545906615846,
      "lng": 127.04013635510294,
      "area_m2": 11204,
      "units": 0,
      "contractor": "",
      "stage_date": "",
      "notes": "",
      "subway": "",
      "hangang": false,
      "completion_est": "",
      "ref_note": ""
    },
    {
      "id": "api_31",
      "name": "양동구역 제11.12지구",
      "region": "서울",
      "district": "중구",
      "dong": "",
      "type": "재개발",
      "stage": "도시환경정비사업지구",
      "stage_idx": 0,
      "lat": 37.55637893783888,
      "lng": 126.99141927691419,
      "area_m2": 3565,
      "units": 0,
      "contractor": "",
      "stage_date": "",
      "notes": "",
      "subway": "",
      "hangang": false,
      "completion_est": "",
      "ref_note": ""
    },
    {
      "id": "api_32",
      "name": "신당 제8구역 주택재개발정비사업",
      "region": "서울",
      "district": "중구",
      "dong": "",
      "type": "재개발",
      "stage": "관리처분인가",
      "stage_idx": 3,
      "lat": 37.56473600949959,
      "lng": 126.99173742708894,
      "area_m2": 58439,
      "units": 0,
      "contractor": "",
      "stage_date": "202405",
      "notes": "",
      "subway": "",
      "hangang": false,
      "completion_est": "",
      "ref_note": ""
    },
    {
      "id": "api_33",
      "name": "장위6구역 ",
      "region": "서울",
      "district": "성북구",
      "dong": "",
      "type": "재개발",
      "stage": "주택재개발사업구역",
      "stage_idx": 0,
      "lat": 37.584841484419734,
      "lng": 127.01877749827005,
      "area_m2": 105163,
      "units": 0,
      "contractor": "",
      "stage_date": "",
      "notes": "",
      "subway": "",
      "hangang": false,
      "completion_est": "",
      "ref_note": ""
    },
    {
      "id": "api_34",
      "name": "한남4 재정비촉진구역 ",
      "region": "서울",
      "district": "용산구",
      "dong": "",
      "type": "재개발",
      "stage": "주택재개발사업구역",
      "stage_idx": 0,
      "lat": 37.54072636265929,
      "lng": 126.9765418494478,
      "area_m2": 162163,
      "units": 0,
      "contractor": "",
      "stage_date": "",
      "notes": "",
      "subway": "",
      "hangang": false,
      "completion_est": "",
      "ref_note": ""
    },
    {
      "id": "api_35",
      "name": "마포로5 도시정비형 재개발구역",
      "region": "서울",
      "district": "중구",
      "dong": "",
      "type": "재개발",
      "stage": "도시환경정비사업구역",
      "stage_idx": 0,
      "lat": 37.55924679157927,
      "lng": 126.99474068550788,
      "area_m2": 61730,
      "units": 0,
      "contractor": "",
      "stage_date": "",
      "notes": "",
      "subway": "",
      "hangang": false,
      "completion_est": "",
      "ref_note": ""
    },
    {
      "id": "api_36",
      "name": "마포로5 도시정비형 재개발구역 제9-1지구",
      "region": "서울",
      "district": "중구",
      "dong": "",
      "type": "재개발",
      "stage": "도시환경정비사업구역",
      "stage_idx": 0,
      "lat": 37.56157064897737,
      "lng": 127.00091973028776,
      "area_m2": 1938,
      "units": 0,
      "contractor": "",
      "stage_date": "",
      "notes": "",
      "subway": "",
      "hangang": false,
      "completion_est": "",
      "ref_note": ""
    },
    {
      "id": "api_37",
      "name": "금호 제14-1 주택재개발 정비사업",
      "region": "서울",
      "district": "성동구",
      "dong": "",
      "type": "재개발",
      "stage": "주택재개발사업구역",
      "stage_idx": 0,
      "lat": 37.555225959621225,
      "lng": 127.03093300860019,
      "area_m2": 5127,
      "units": 0,
      "contractor": "",
      "stage_date": "",
      "notes": "",
      "subway": "",
      "hangang": false,
      "completion_est": "",
      "ref_note": ""
    },
    {
      "id": "api_38",
      "name": "은마아파트 재건축 정비구역 ",
      "region": "서울",
      "district": "강남구",
      "dong": "",
      "type": "재건축",
      "stage": "설계자선정",
      "stage_idx": 0,
      "lat": 37.51239971702188,
      "lng": 127.04071991035495,
      "area_m2": 0,
      "units": 0,
      "contractor": "",
      "stage_date": "201609",
      "notes": "",
      "subway": "",
      "hangang": false,
      "completion_est": "",
      "ref_note": ""
    },
    {
      "id": "api_39",
      "name": "양평제12 도시환경정비구역",
      "region": "서울",
      "district": "영등포구",
      "dong": "",
      "type": "재개발",
      "stage": "도시환경정비사업구역",
      "stage_idx": 0,
      "lat": 37.535875923758844,
      "lng": 126.88827631809981,
      "area_m2": 37561,
      "units": 0,
      "contractor": "",
      "stage_date": "",
      "notes": "",
      "subway": "",
      "hangang": false,
      "completion_est": "",
      "ref_note": ""
    },
    {
      "id": "api_42",
      "name": "면목4 주택재건축정비구역",
      "region": "서울",
      "district": "중랑구",
      "dong": "",
      "type": "재건축",
      "stage": "주택재건축사업",
      "stage_idx": 0,
      "lat": 37.59859208696605,
      "lng": 127.08540712195531,
      "area_m2": 14918,
      "units": 0,
      "contractor": "",
      "stage_date": "",
      "notes": "",
      "subway": "",
      "hangang": false,
      "completion_est": "",
      "ref_note": ""
    },
    {
      "id": "api_43",
      "name": "개포주공4단지 주택재건축정비사업",
      "region": "서울",
      "district": "강남구",
      "dong": "",
      "type": "재건축",
      "stage": "주택재건축사업",
      "stage_idx": 0,
      "lat": 37.51169173027358,
      "lng": 127.05052449100901,
      "area_m2": 179794,
      "units": 0,
      "contractor": "",
      "stage_date": "",
      "notes": "",
      "subway": "",
      "hangang": false,
      "completion_est": "",
      "ref_note": ""
    },
    {
      "id": "api_44",
      "name": "잠실우성4차아파트 주택재건축 정비구역",
      "region": "서울",
      "district": "송파구",
      "dong": "",
      "type": "재건축",
      "stage": "관리처분인가",
      "stage_idx": 3,
      "lat": 37.51926347964956,
      "lng": 127.09632796388985,
      "area_m2": 31961,
      "units": 0,
      "contractor": "",
      "stage_date": "202512",
      "notes": "",
      "subway": "",
      "hangang": false,
      "completion_est": "",
      "ref_note": ""
    },
    {
      "id": "api_45",
      "name": "홍은제1 주택재건축 정비사업",
      "region": "서울",
      "district": "서대문구",
      "dong": "",
      "type": "재건축",
      "stage": "주택재건축사업",
      "stage_idx": 0,
      "lat": 37.56988458960631,
      "lng": 126.93485680135824,
      "area_m2": 19070,
      "units": 0,
      "contractor": "",
      "stage_date": "",
      "notes": "",
      "subway": "",
      "hangang": false,
      "completion_est": "",
      "ref_note": ""
    },
    {
      "id": "api_47",
      "name": "홍은 제2주택재건축 정비구역",
      "region": "서울",
      "district": "서대문구",
      "dong": "",
      "type": "재건축",
      "stage": "주택재건축사업",
      "stage_idx": 0,
      "lat": 37.58078640142231,
      "lng": 126.94193319301284,
      "area_m2": 33199,
      "units": 0,
      "contractor": "",
      "stage_date": "",
      "notes": "",
      "subway": "",
      "hangang": false,
      "completion_est": "",
      "ref_note": ""
    },
    {
      "id": "api_48",
      "name": "용두제6구역 주택재개발정비사업",
      "region": "서울",
      "district": "동대문구",
      "dong": "",
      "type": "재개발",
      "stage": "주택재개발사업구역",
      "stage_idx": 0,
      "lat": 37.57581935296185,
      "lng": 127.0407869708997,
      "area_m2": 53370,
      "units": 0,
      "contractor": "",
      "stage_date": "",
      "notes": "",
      "subway": "",
      "hangang": false,
      "completion_est": "",
      "ref_note": ""
    },
    {
      "id": "api_49",
      "name": "중화동 우성타운 재건축정비구역 ",
      "region": "서울",
      "district": "중랑구",
      "dong": "",
      "type": "재건축",
      "stage": "재건축사업구역",
      "stage_idx": 0,
      "lat": 37.60022946289525,
      "lng": 127.08375370719715,
      "area_m2": 0,
      "units": 0,
      "contractor": "",
      "stage_date": "",
      "notes": "",
      "subway": "",
      "hangang": false,
      "completion_est": "",
      "ref_note": ""
    },
    {
      "id": "api_50",
      "name": "사당3 재건축정비사업",
      "region": "서울",
      "district": "동작구",
      "dong": "",
      "type": "재건축",
      "stage": "재건축사업구역",
      "stage_idx": 0,
      "lat": 37.5160965932442,
      "lng": 126.94428427175694,
      "area_m2": 30061,
      "units": 0,
      "contractor": "",
      "stage_date": "",
      "notes": "",
      "subway": "",
      "hangang": false,
      "completion_est": "",
      "ref_note": ""
    },
    {
      "id": "api_51",
      "name": "증산2재정비촉진구역",
      "region": "서울",
      "district": "은평구",
      "dong": "",
      "type": "재개발",
      "stage": "주택재개발사업구역",
      "stage_idx": 0,
      "lat": 37.610260667771236,
      "lng": 126.92634452735365,
      "area_m2": 78755,
      "units": 0,
      "contractor": "",
      "stage_date": "",
      "notes": "",
      "subway": "",
      "hangang": false,
      "completion_est": "",
      "ref_note": ""
    },
    {
      "id": "api_52",
      "name": "수색7재정비촉진구역 ",
      "region": "서울",
      "district": "은평구",
      "dong": "",
      "type": "재개발",
      "stage": "주택재개발사업구역",
      "stage_idx": 0,
      "lat": 37.60409881166973,
      "lng": 126.93786685440202,
      "area_m2": 31402,
      "units": 0,
      "contractor": "",
      "stage_date": "",
      "notes": "",
      "subway": "",
      "hangang": false,
      "completion_est": "",
      "ref_note": ""
    },
    {
      "id": "api_53",
      "name": "수색13 주택재개발사업 ",
      "region": "서울",
      "district": "은평구",
      "dong": "",
      "type": "재개발",
      "stage": "주택재개발사업구역",
      "stage_idx": 0,
      "lat": 37.59463063602464,
      "lng": 126.92814446030089,
      "area_m2": 69681,
      "units": 0,
      "contractor": "",
      "stage_date": "",
      "notes": "",
      "subway": "",
      "hangang": false,
      "completion_est": "",
      "ref_note": ""
    },
    {
      "id": "api_54",
      "name": "역삼동 758번지일대 주택재건축정비사업",
      "region": "서울",
      "district": "강남구",
      "dong": "",
      "type": "재건축",
      "stage": "주택재건축사업",
      "stage_idx": 0,
      "lat": 37.50858715621056,
      "lng": 127.05623629685422,
      "area_m2": 12263,
      "units": 0,
      "contractor": "",
      "stage_date": "",
      "notes": "",
      "subway": "",
      "hangang": false,
      "completion_est": "",
      "ref_note": ""
    },
    {
      "id": "api_55",
      "name": "수색9 재정비촉진구역 주택재개발사업 ",
      "region": "서울",
      "district": "은평구",
      "dong": "",
      "type": "재개발",
      "stage": "주택재개발사업구역",
      "stage_idx": 0,
      "lat": 37.5931526444753,
      "lng": 126.93230980634908,
      "area_m2": 36348,
      "units": 0,
      "contractor": "",
      "stage_date": "",
      "notes": "",
      "subway": "",
      "hangang": false,
      "completion_est": "",
      "ref_note": ""
    },
    {
      "id": "api_56",
      "name": "제기1주거환경개선지구",
      "region": "서울",
      "district": "동대문구",
      "dong": "",
      "type": "재개발",
      "stage": "주거환경개선사업",
      "stage_idx": 0,
      "lat": 37.57039182101631,
      "lng": 127.0477343864888,
      "area_m2": 9945,
      "units": 0,
      "contractor": "",
      "stage_date": "",
      "notes": "",
      "subway": "",
      "hangang": false,
      "completion_est": "",
      "ref_note": ""
    },
    {
      "id": "api_60",
      "name": "1-1구역",
      "region": "서울",
      "district": "용산구",
      "dong": "",
      "type": "재개발",
      "stage": "설계자선정",
      "stage_idx": 0,
      "lat": 37.53971887760744,
      "lng": 126.97893111238666,
      "area_m2": 2749,
      "units": 0,
      "contractor": "",
      "stage_date": "202301",
      "notes": "",
      "subway": "",
      "hangang": false,
      "completion_est": "",
      "ref_note": ""
    },
    {
      "id": "api_61",
      "name": "1-2구역",
      "region": "서울",
      "district": "용산구",
      "dong": "",
      "type": "재개발",
      "stage": "이전고시",
      "stage_idx": 0,
      "lat": 37.52519184779622,
      "lng": 126.98642352068302,
      "area_m2": 8527,
      "units": 0,
      "contractor": "",
      "stage_date": "202509",
      "notes": "",
      "subway": "",
      "hangang": false,
      "completion_est": "",
      "ref_note": ""
    },
    {
      "id": "api_62",
      "name": "2구역",
      "region": "서울",
      "district": "용산구",
      "dong": "",
      "type": "재개발",
      "stage": "도시환경정비사업구역",
      "stage_idx": 0,
      "lat": 37.53130258508053,
      "lng": 126.98543191251342,
      "area_m2": 8705,
      "units": 0,
      "contractor": "",
      "stage_date": "",
      "notes": "",
      "subway": "",
      "hangang": false,
      "completion_est": "",
      "ref_note": ""
    },
    {
      "id": "api_64",
      "name": "강북3 재정비촉진구역",
      "region": "서울",
      "district": "강북구",
      "dong": "",
      "type": "재개발",
      "stage": "도시환경정비사업구역",
      "stage_idx": 0,
      "lat": 37.638279831097144,
      "lng": 127.01906401495887,
      "area_m2": 0,
      "units": 0,
      "contractor": "",
      "stage_date": "",
      "notes": "",
      "subway": "",
      "hangang": false,
      "completion_est": "",
      "ref_note": ""
    },
    {
      "id": "api_65",
      "name": "가락프라자아파트 주택재건축사업",
      "region": "서울",
      "district": "송파구",
      "dong": "",
      "type": "재건축",
      "stage": "주택재건축사업",
      "stage_idx": 0,
      "lat": 37.52358253591007,
      "lng": 127.10996131140482,
      "area_m2": 45808,
      "units": 0,
      "contractor": "",
      "stage_date": "",
      "notes": "",
      "subway": "",
      "hangang": false,
      "completion_est": "",
      "ref_note": ""
    },
    {
      "id": "api_66",
      "name": "길음5재정비촉진구역(주택정비형재개발사업)",
      "region": "서울",
      "district": "성북구",
      "dong": "",
      "type": "재개발",
      "stage": "주택재개발사업구역",
      "stage_idx": 0,
      "lat": 37.58046759378773,
      "lng": 127.00988075797407,
      "area_m2": 35388,
      "units": 0,
      "contractor": "",
      "stage_date": "",
      "notes": "",
      "subway": "",
      "hangang": false,
      "completion_est": "",
      "ref_note": ""
    },
    {
      "id": "api_67",
      "name": "홍은 제2주택재건축 정비구역",
      "region": "서울",
      "district": "서대문구",
      "dong": "",
      "type": "재건축",
      "stage": "주택재건축사업",
      "stage_idx": 0,
      "lat": 37.57038151942281,
      "lng": 126.93788746687193,
      "area_m2": 34387,
      "units": 0,
      "contractor": "",
      "stage_date": "",
      "notes": "",
      "subway": "",
      "hangang": false,
      "completion_est": "",
      "ref_note": ""
    },
    {
      "id": "api_69",
      "name": "고척동 한효아파트 재건축정비구역 ",
      "region": "서울",
      "district": "구로구",
      "dong": "",
      "type": "재건축",
      "stage": "재건축사업구역",
      "stage_idx": 0,
      "lat": 37.49091228944656,
      "lng": 126.88192045666727,
      "area_m2": 0,
      "units": 0,
      "contractor": "",
      "stage_date": "",
      "notes": "",
      "subway": "",
      "hangang": false,
      "completion_est": "",
      "ref_note": ""
    },
    {
      "id": "api_71",
      "name": "3구역",
      "region": "서울",
      "district": "용산구",
      "dong": "",
      "type": "재개발",
      "stage": "도시환경정비사업구역",
      "stage_idx": 0,
      "lat": 37.53083542693825,
      "lng": 126.9714317677361,
      "area_m2": 11961,
      "units": 0,
      "contractor": "",
      "stage_date": "",
      "notes": "",
      "subway": "",
      "hangang": false,
      "completion_est": "",
      "ref_note": ""
    },
    {
      "id": "api_72",
      "name": "노량진5재정비촉진구역",
      "region": "서울",
      "district": "동작구",
      "dong": "",
      "type": "재개발",
      "stage": "주택재개발사업구역",
      "stage_idx": 0,
      "lat": 37.519409195131445,
      "lng": 126.9396082644559,
      "area_m2": 38017,
      "units": 0,
      "contractor": "",
      "stage_date": "",
      "notes": "",
      "subway": "",
      "hangang": false,
      "completion_est": "",
      "ref_note": ""
    },
    {
      "id": "api_73",
      "name": "노량진8재정비촉진구역",
      "region": "서울",
      "district": "동작구",
      "dong": "",
      "type": "재개발",
      "stage": "주택재개발사업구역",
      "stage_idx": 0,
      "lat": 37.51193970462427,
      "lng": 126.94768221090507,
      "area_m2": 55742,
      "units": 0,
      "contractor": "",
      "stage_date": "",
      "notes": "",
      "subway": "",
      "hangang": false,
      "completion_est": "",
      "ref_note": ""
    },
    {
      "id": "api_75",
      "name": "문래동2가A 도시정비형  재개발구역 4지구",
      "region": "서울",
      "district": "영등포구",
      "dong": "",
      "type": "재개발",
      "stage": "도시환경정비사업지구",
      "stage_idx": 0,
      "lat": 37.52098567283661,
      "lng": 126.90454502068054,
      "area_m2": 3214,
      "units": 0,
      "contractor": "",
      "stage_date": "",
      "notes": "",
      "subway": "",
      "hangang": false,
      "completion_est": "",
      "ref_note": ""
    },
    {
      "id": "api_78",
      "name": "마포로3구역",
      "region": "서울",
      "district": "마포구",
      "dong": "",
      "type": "재개발",
      "stage": "일반분양승인",
      "stage_idx": 0,
      "lat": 37.566846973943264,
      "lng": 126.90605978860005,
      "area_m2": 40044,
      "units": 0,
      "contractor": "",
      "stage_date": "202311",
      "notes": "",
      "subway": "",
      "hangang": false,
      "completion_est": "",
      "ref_note": ""
    },
    {
      "id": "api_79",
      "name": "4-2지구",
      "region": "서울",
      "district": "마포구",
      "dong": "",
      "type": "재개발",
      "stage": "이전고시",
      "stage_idx": 0,
      "lat": 37.5701522891067,
      "lng": 126.91855877848283,
      "area_m2": 1192,
      "units": 0,
      "contractor": "",
      "stage_date": "202005",
      "notes": "",
      "subway": "",
      "hangang": false,
      "completion_est": "",
      "ref_note": ""
    },
    {
      "id": "api_80",
      "name": "흑석9재정비촉진구역",
      "region": "서울",
      "district": "동작구",
      "dong": "",
      "type": "재개발",
      "stage": "주택재개발사업구역",
      "stage_idx": 0,
      "lat": 37.50727690940832,
      "lng": 126.94153904220143,
      "area_m2": 94577,
      "units": 0,
      "contractor": "",
      "stage_date": "",
      "notes": "",
      "subway": "",
      "hangang": false,
      "completion_est": "",
      "ref_note": ""
    },
    {
      "id": "api_81",
      "name": "문래동1가A 도시정비형 재개발구역",
      "region": "서울",
      "district": "영등포구",
      "dong": "",
      "type": "재개발",
      "stage": "도시환경정비사업구역",
      "stage_idx": 0,
      "lat": 37.52613249384595,
      "lng": 126.89063157189551,
      "area_m2": 45884,
      "units": 0,
      "contractor": "",
      "stage_date": "",
      "notes": "",
      "subway": "",
      "hangang": false,
      "completion_est": "",
      "ref_note": ""
    },
    {
      "id": "api_82",
      "name": "문래동1가B 도시정비형 재개발구역",
      "region": "서울",
      "district": "영등포구",
      "dong": "",
      "type": "재개발",
      "stage": "도시환경정비사업구역",
      "stage_idx": 0,
      "lat": 37.535691543078535,
      "lng": 126.90399415664467,
      "area_m2": 27878,
      "units": 0,
      "contractor": "",
      "stage_date": "",
      "notes": "",
      "subway": "",
      "hangang": false,
      "completion_est": "",
      "ref_note": ""
    },
    {
      "id": "api_83",
      "name": "신촌지역 마포4  도시정비형 재개발구역",
      "region": "서울",
      "district": "마포구",
      "dong": "",
      "type": "재개발",
      "stage": "도시환경정비사업구역",
      "stage_idx": 0,
      "lat": 37.573106559122905,
      "lng": 126.90587722753409,
      "area_m2": 50515,
      "units": 0,
      "contractor": "",
      "stage_date": "",
      "notes": "",
      "subway": "",
      "hangang": false,
      "completion_est": "",
      "ref_note": ""
    },
    {
      "id": "api_84",
      "name": "상봉10재정비촉진구역",
      "region": "서울",
      "district": "중랑구",
      "dong": "",
      "type": "재개발",
      "stage": "도시환경정비사업구역",
      "stage_idx": 0,
      "lat": 37.61573187075214,
      "lng": 127.09062414649189,
      "area_m2": 0,
      "units": 0,
      "contractor": "",
      "stage_date": "",
      "notes": "",
      "subway": "",
      "hangang": false,
      "completion_est": "",
      "ref_note": ""
    },
    {
      "id": "api_85",
      "name": "무교다동 11지구",
      "region": "서울",
      "district": "중구",
      "dong": "",
      "type": "재개발",
      "stage": "도시환경정비사업지구",
      "stage_idx": 0,
      "lat": 37.56724906404106,
      "lng": 126.99799698220748,
      "area_m2": 1370,
      "units": 0,
      "contractor": "",
      "stage_date": "",
      "notes": "",
      "subway": "",
      "hangang": false,
      "completion_est": "",
      "ref_note": ""
    },
    {
      "id": "api_86",
      "name": "무교다동 23-1지구",
      "region": "서울",
      "district": "중구",
      "dong": "",
      "type": "재개발",
      "stage": "정비구역",
      "stage_idx": 0,
      "lat": 37.57057663112343,
      "lng": 126.99038090814894,
      "area_m2": 1330,
      "units": 0,
      "contractor": "",
      "stage_date": "",
      "notes": "",
      "subway": "",
      "hangang": false,
      "completion_est": "",
      "ref_note": ""
    },
    {
      "id": "api_87",
      "name": "무교다동 23-9지구 ",
      "region": "서울",
      "district": "중구",
      "dong": "",
      "type": "재개발",
      "stage": "도시환경정비사업지구",
      "stage_idx": 0,
      "lat": 37.56414037690945,
      "lng": 126.99112588374896,
      "area_m2": 1330,
      "units": 0,
      "contractor": "",
      "stage_date": "",
      "notes": "",
      "subway": "",
      "hangang": false,
      "completion_est": "",
      "ref_note": ""
    },
    {
      "id": "api_88",
      "name": "무교다동 24-6지구 ",
      "region": "서울",
      "district": "중구",
      "dong": "",
      "type": "재개발",
      "stage": "도시환경정비사업지구",
      "stage_idx": 0,
      "lat": 37.56637812816296,
      "lng": 126.9882295056553,
      "area_m2": 1353,
      "units": 0,
      "contractor": "",
      "stage_date": "",
      "notes": "",
      "subway": "",
      "hangang": false,
      "completion_est": "",
      "ref_note": ""
    },
    {
      "id": "api_89",
      "name": "무교다동 24-4지구 ",
      "region": "서울",
      "district": "중구",
      "dong": "",
      "type": "재개발",
      "stage": "도시환경정비사업지구",
      "stage_idx": 0,
      "lat": 37.56794159363993,
      "lng": 127.00088310059314,
      "area_m2": 1353,
      "units": 0,
      "contractor": "",
      "stage_date": "",
      "notes": "",
      "subway": "",
      "hangang": false,
      "completion_est": "",
      "ref_note": ""
    },
    {
      "id": "api_90",
      "name": "무교다동구역 제16지구",
      "region": "서울",
      "district": "중구",
      "dong": "",
      "type": "재개발",
      "stage": "도시환경정비사업지구",
      "stage_idx": 0,
      "lat": 37.562249815791496,
      "lng": 127.00388262312757,
      "area_m2": 2812,
      "units": 0,
      "contractor": "",
      "stage_date": "",
      "notes": "",
      "subway": "",
      "hangang": false,
      "completion_est": "",
      "ref_note": ""
    },
    {
      "id": "api_92",
      "name": "무교다동 24-2지구 ",
      "region": "서울",
      "district": "중구",
      "dong": "",
      "type": "재개발",
      "stage": "도시환경정비사업지구",
      "stage_idx": 0,
      "lat": 37.563690871017485,
      "lng": 127.00260130453344,
      "area_m2": 1353,
      "units": 0,
      "contractor": "",
      "stage_date": "",
      "notes": "",
      "subway": "",
      "hangang": false,
      "completion_est": "",
      "ref_note": ""
    },
    {
      "id": "api_93",
      "name": "무교다동 23-12지구 ",
      "region": "서울",
      "district": "중구",
      "dong": "",
      "type": "재개발",
      "stage": "도시환경정비사업지구",
      "stage_idx": 0,
      "lat": 37.567138326204336,
      "lng": 126.98865067061308,
      "area_m2": 1330,
      "units": 0,
      "contractor": "",
      "stage_date": "",
      "notes": "",
      "subway": "",
      "hangang": false,
      "completion_est": "",
      "ref_note": ""
    },
    {
      "id": "api_94",
      "name": "무교다동 22-3지구 ",
      "region": "서울",
      "district": "중구",
      "dong": "",
      "type": "재개발",
      "stage": "도시환경정비사업지구",
      "stage_idx": 0,
      "lat": 37.5562710865637,
      "lng": 127.0011852142338,
      "area_m2": 1057,
      "units": 0,
      "contractor": "",
      "stage_date": "",
      "notes": "",
      "subway": "",
      "hangang": false,
      "completion_est": "",
      "ref_note": ""
    },
    {
      "id": "api_95",
      "name": "무교다동 23-8지구 ",
      "region": "서울",
      "district": "중구",
      "dong": "",
      "type": "재개발",
      "stage": "도시환경정비사업지구",
      "stage_idx": 0,
      "lat": 37.56629906611265,
      "lng": 126.99884032460942,
      "area_m2": 1330,
      "units": 0,
      "contractor": "",
      "stage_date": "",
      "notes": "",
      "subway": "",
      "hangang": false,
      "completion_est": "",
      "ref_note": ""
    },
    {
      "id": "api_98",
      "name": "신정2재정비촉진구역",
      "region": "서울",
      "district": "양천구",
      "dong": "",
      "type": "재개발",
      "stage": "이전고시",
      "stage_idx": 0,
      "lat": 37.50969425192539,
      "lng": 126.85903054026664,
      "area_m2": 105685,
      "units": 0,
      "contractor": "",
      "stage_date": "202112",
      "notes": "",
      "subway": "",
      "hangang": false,
      "completion_est": "",
      "ref_note": ""
    },
    {
      "id": "api_509",
      "name": "유원제일2차아파트 재건축정비사업",
      "region": "서울",
      "district": "영등포구",
      "dong": "",
      "type": "재건축",
      "stage": "사업시행인가",
      "stage_idx": 2,
      "lat": 37.53483224726235,
      "lng": 126.89787279370671,
      "area_m2": 28654,
      "units": 0,
      "contractor": "",
      "stage_date": "202503",
      "notes": "",
      "subway": "",
      "hangang": false,
      "completion_est": "",
      "ref_note": ""
    },
    {
      "id": "api_510",
      "name": "마포로1구역 제48지구 도시정비형 재개발사업 ",
      "region": "서울",
      "district": "마포구",
      "dong": "",
      "type": "재개발",
      "stage": "도시환경정비사업구역",
      "stage_idx": 0,
      "lat": 37.56201839354025,
      "lng": 126.9071391535257,
      "area_m2": 3802,
      "units": 0,
      "contractor": "",
      "stage_date": "",
      "notes": "",
      "subway": "",
      "hangang": false,
      "completion_est": "",
      "ref_note": ""
    },
    {
      "id": "api_511",
      "name": "흑석4재정비촉진구역",
      "region": "서울",
      "district": "동작구",
      "dong": "",
      "type": "재개발",
      "stage": "주택재개발사업구역",
      "stage_idx": 0,
      "lat": 37.52022776803059,
      "lng": 126.94859268955767,
      "area_m2": 56622,
      "units": 0,
      "contractor": "",
      "stage_date": "",
      "notes": "",
      "subway": "",
      "hangang": false,
      "completion_est": "",
      "ref_note": ""
    },
    {
      "id": "api_512",
      "name": "주택재건축정비구역",
      "region": "서울",
      "district": "강동구",
      "dong": "",
      "type": "재건축",
      "stage": "주택재건축사업",
      "stage_idx": 0,
      "lat": 37.536757146760266,
      "lng": 127.12372371699324,
      "area_m2": 12181,
      "units": 0,
      "contractor": "",
      "stage_date": "",
      "notes": "",
      "subway": "",
      "hangang": false,
      "completion_est": "",
      "ref_note": ""
    },
    {
      "id": "api_565",
      "name": "무교다동 8지구",
      "region": "서울",
      "district": "중구",
      "dong": "",
      "type": "재개발",
      "stage": "도시환경정비사업지구",
      "stage_idx": 0,
      "lat": 37.555699329135244,
      "lng": 126.99520962464257,
      "area_m2": 1386,
      "units": 0,
      "contractor": "",
      "stage_date": "",
      "notes": "",
      "subway": "",
      "hangang": false,
      "completion_est": "",
      "ref_note": ""
    },
    {
      "id": "api_566",
      "name": "무교다동 23-11지구 ",
      "region": "서울",
      "district": "중구",
      "dong": "",
      "type": "재개발",
      "stage": "도시환경정비사업지구",
      "stage_idx": 0,
      "lat": 37.56965828089226,
      "lng": 127.00624684371205,
      "area_m2": 1330,
      "units": 0,
      "contractor": "",
      "stage_date": "",
      "notes": "",
      "subway": "",
      "hangang": false,
      "completion_est": "",
      "ref_note": ""
    },
    {
      "id": "api_567",
      "name": "마포지역 도시환경 정비사업구역",
      "region": "서울",
      "district": "서대문구",
      "dong": "",
      "type": "재개발",
      "stage": "도시환경정비사업구역",
      "stage_idx": 0,
      "lat": 37.58158099980669,
      "lng": 126.94421711775179,
      "area_m2": 6244,
      "units": 0,
      "contractor": "",
      "stage_date": "",
      "notes": "",
      "subway": "",
      "hangang": false,
      "completion_est": "",
      "ref_note": ""
    },
    {
      "id": "api_568",
      "name": "신촌지역(마포)1-2지구 도시정비형 재개발구역",
      "region": "서울",
      "district": "마포구",
      "dong": "",
      "type": "재개발",
      "stage": "도시환경정비사업구역",
      "stage_idx": 0,
      "lat": 37.570887251192346,
      "lng": 126.9181468759393,
      "area_m2": 1427,
      "units": 0,
      "contractor": "",
      "stage_date": "",
      "notes": "",
      "subway": "",
      "hangang": false,
      "completion_est": "",
      "ref_note": ""
    },
    {
      "id": "api_569",
      "name": "사당3 재건축정비사업",
      "region": "서울",
      "district": "동작구",
      "dong": "",
      "type": "재건축",
      "stage": "주택재건축사업",
      "stage_idx": 0,
      "lat": 37.51634720928753,
      "lng": 126.94388465801647,
      "area_m2": 30100,
      "units": 0,
      "contractor": "",
      "stage_date": "",
      "notes": "",
      "subway": "",
      "hangang": false,
      "completion_est": "",
      "ref_note": ""
    },
    {
      "id": "api_570",
      "name": "마포로5구역",
      "region": "서울",
      "district": "서대문구",
      "dong": "",
      "type": "재개발",
      "stage": "설계자선정",
      "stage_idx": 0,
      "lat": 37.57468853947235,
      "lng": 126.94124639269286,
      "area_m2": 61194,
      "units": 0,
      "contractor": "",
      "stage_date": "200807",
      "notes": "",
      "subway": "",
      "hangang": false,
      "completion_est": "",
      "ref_note": ""
    },
    {
      "id": "api_571",
      "name": "마포로5-2",
      "region": "서울",
      "district": "서대문구",
      "dong": "",
      "type": "재개발",
      "stage": "도시환경정비사업지구",
      "stage_idx": 0,
      "lat": 37.578019750680625,
      "lng": 126.9424704402026,
      "area_m2": 4565,
      "units": 0,
      "contractor": "",
      "stage_date": "",
      "notes": "",
      "subway": "",
      "hangang": false,
      "completion_est": "",
      "ref_note": ""
    },
    {
      "id": "api_572",
      "name": "마포로5-3",
      "region": "서울",
      "district": "서대문구",
      "dong": "",
      "type": "재개발",
      "stage": "도시환경정비사업지구",
      "stage_idx": 0,
      "lat": 37.57667719980564,
      "lng": 126.94057025402515,
      "area_m2": 0,
      "units": 0,
      "contractor": "",
      "stage_date": "",
      "notes": "",
      "subway": "",
      "hangang": false,
      "completion_est": "",
      "ref_note": ""
    },
    {
      "id": "api_573",
      "name": "마포로5-3-1",
      "region": "서울",
      "district": "서대문구",
      "dong": "",
      "type": "재개발",
      "stage": "도시환경정비사업지구",
      "stage_idx": 0,
      "lat": 37.58064217608041,
      "lng": 126.93501182320985,
      "area_m2": 0,
      "units": 0,
      "contractor": "",
      "stage_date": "",
      "notes": "",
      "subway": "",
      "hangang": false,
      "completion_est": "",
      "ref_note": ""
    },
    {
      "id": "api_574",
      "name": "마포로5-4",
      "region": "서울",
      "district": "서대문구",
      "dong": "",
      "type": "재개발",
      "stage": "도시환경정비사업지구",
      "stage_idx": 0,
      "lat": 37.58400759925095,
      "lng": 126.93949919267018,
      "area_m2": 0,
      "units": 0,
      "contractor": "",
      "stage_date": "",
      "notes": "",
      "subway": "",
      "hangang": false,
      "completion_est": "",
      "ref_note": ""
    },
    {
      "id": "api_575",
      "name": "마포로5-8",
      "region": "서울",
      "district": "서대문구",
      "dong": "",
      "type": "재개발",
      "stage": "도시환경정비사업지구",
      "stage_idx": 0,
      "lat": 37.56945323655663,
      "lng": 126.9361729325224,
      "area_m2": 0,
      "units": 0,
      "contractor": "",
      "stage_date": "",
      "notes": "",
      "subway": "",
      "hangang": false,
      "completion_est": "",
      "ref_note": ""
    },
    {
      "id": "api_576",
      "name": "효창제6구역 주택재개발정비사업",
      "region": "서울",
      "district": "용산구",
      "dong": "",
      "type": "재개발",
      "stage": "주택재개발사업구역",
      "stage_idx": 0,
      "lat": 37.52836722279338,
      "lng": 126.97657593919499,
      "area_m2": 18397,
      "units": 0,
      "contractor": "",
      "stage_date": "",
      "notes": "",
      "subway": "",
      "hangang": false,
      "completion_est": "",
      "ref_note": ""
    },
    {
      "id": "api_577",
      "name": "연신내구역 도시정비형 재개발사업",
      "region": "서울",
      "district": "은평구",
      "dong": "",
      "type": "재개발",
      "stage": "도시환경정비사업구역",
      "stage_idx": 0,
      "lat": 37.61058206769537,
      "lng": 126.92339161715603,
      "area_m2": 8699,
      "units": 0,
      "contractor": "",
      "stage_date": "",
      "notes": "",
      "subway": "",
      "hangang": false,
      "completion_est": "",
      "ref_note": ""
    },
    {
      "id": "api_578",
      "name": "잠실주공5단지아파트 재건축사업 정비구역",
      "region": "서울",
      "district": "송파구",
      "dong": "",
      "type": "재건축",
      "stage": "재건축사업구역",
      "stage_idx": 0,
      "lat": 37.514980304573456,
      "lng": 127.09713607336636,
      "area_m2": 353987,
      "units": 0,
      "contractor": "",
      "stage_date": "",
      "notes": "",
      "subway": "",
      "hangang": false,
      "completion_est": "",
      "ref_note": ""
    },
    {
      "id": "api_579",
      "name": "잠실우성4차아파트주택재건축정비구역",
      "region": "서울",
      "district": "송파구",
      "dong": "",
      "type": "재건축",
      "stage": "관리처분인가",
      "stage_idx": 3,
      "lat": 37.51992016339106,
      "lng": 127.10362006430096,
      "area_m2": 31630,
      "units": 0,
      "contractor": "",
      "stage_date": "202512",
      "notes": "",
      "subway": "",
      "hangang": false,
      "completion_est": "",
      "ref_note": ""
    },
    {
      "id": "api_580",
      "name": "신촌지역(마포) 4-9지구 도시정비형 재개발구역 ",
      "region": "서울",
      "district": "마포구",
      "dong": "",
      "type": "재개발",
      "stage": "도시환경정비사업구역",
      "stage_idx": 0,
      "lat": 37.555321841779296,
      "lng": 126.8988660118304,
      "area_m2": 4827,
      "units": 0,
      "contractor": "",
      "stage_date": "",
      "notes": "",
      "subway": "",
      "hangang": false,
      "completion_est": "",
      "ref_note": ""
    },
    {
      "id": "api_581",
      "name": "미장세림아파트 주택재건축사업",
      "region": "서울",
      "district": "성동구",
      "dong": "",
      "type": "재건축",
      "stage": "주택재건축사업",
      "stage_idx": 0,
      "lat": 37.56389260049449,
      "lng": 127.04518428339945,
      "area_m2": 0,
      "units": 0,
      "contractor": "",
      "stage_date": "",
      "notes": "",
      "subway": "",
      "hangang": false,
      "completion_est": "",
      "ref_note": ""
    },
    {
      "id": "api_582",
      "name": "청담삼익아파트 재건축사업",
      "region": "서울",
      "district": "강남구",
      "dong": "",
      "type": "재건축",
      "stage": "주택재건축사업",
      "stage_idx": 0,
      "lat": 37.52573742723942,
      "lng": 127.03819184295205,
      "area_m2": 0,
      "units": 0,
      "contractor": "",
      "stage_date": "",
      "notes": "",
      "subway": "",
      "hangang": false,
      "completion_est": "",
      "ref_note": ""
    },
    {
      "id": "api_583",
      "name": "합정7재정비촉진구역",
      "region": "서울",
      "district": "마포구",
      "dong": "",
      "type": "재개발",
      "stage": "도시환경정비사업구역",
      "stage_idx": 0,
      "lat": 37.55846575828925,
      "lng": 126.91160861260215,
      "area_m2": 0,
      "units": 0,
      "contractor": "",
      "stage_date": "",
      "notes": "",
      "subway": "",
      "hangang": false,
      "completion_est": "",
      "ref_note": ""
    },
    {
      "id": "api_584",
      "name": "강동역 역세권 활성화 도시정비형 재개발 정비구역",
      "region": "서울",
      "district": "강동구",
      "dong": "",
      "type": "재개발",
      "stage": "도시환경정비사업구역",
      "stage_idx": 0,
      "lat": 37.533753374043776,
      "lng": 127.12267918794677,
      "area_m2": 0,
      "units": 0,
      "contractor": "",
      "stage_date": "",
      "notes": "",
      "subway": "",
      "hangang": false,
      "completion_est": "",
      "ref_note": ""
    },
    {
      "id": "api_585",
      "name": "여의도 공작아파트 재건축정비사업 ",
      "region": "서울",
      "district": "영등포구",
      "dong": "",
      "type": "재건축",
      "stage": "설계자선정",
      "stage_idx": 0,
      "lat": 37.53400256779148,
      "lng": 126.89145766573918,
      "area_m2": 0,
      "units": 0,
      "contractor": "",
      "stage_date": "202605",
      "notes": "",
      "subway": "",
      "hangang": false,
      "completion_est": "",
      "ref_note": ""
    },
    {
      "id": "api_586",
      "name": "제기 제6구역 주택재개발정비구역",
      "region": "서울",
      "district": "동대문구",
      "dong": "",
      "type": "재개발",
      "stage": "관리처분인가",
      "stage_idx": 3,
      "lat": 37.57507915519015,
      "lng": 127.04339030213768,
      "area_m2": 24320,
      "units": 0,
      "contractor": "",
      "stage_date": "202311",
      "notes": "",
      "subway": "",
      "hangang": false,
      "completion_est": "",
      "ref_note": ""
    },
    {
      "id": "api_590",
      "name": "봉천제12-2 주택재개발정비사업",
      "region": "서울",
      "district": "관악구",
      "dong": "",
      "type": "재개발",
      "stage": "주택재개발사업구역",
      "stage_idx": 0,
      "lat": 37.47270269491572,
      "lng": 126.95580763539019,
      "area_m2": 80917,
      "units": 0,
      "contractor": "",
      "stage_date": "",
      "notes": "",
      "subway": "",
      "hangang": false,
      "completion_est": "",
      "ref_note": ""
    },
    {
      "id": "api_599",
      "name": "공평구역",
      "region": "서울",
      "district": "종로구",
      "dong": "",
      "type": "재개발",
      "stage": "도시환경정비사업구역",
      "stage_idx": 0,
      "lat": 37.597093949965576,
      "lng": 126.97825887262624,
      "area_m2": 95028,
      "units": 0,
      "contractor": "",
      "stage_date": "",
      "notes": "",
      "subway": "",
      "hangang": false,
      "completion_est": "",
      "ref_note": ""
    },
    {
      "id": "api_600",
      "name": "공평구역<15.16지구>",
      "region": "서울",
      "district": "종로구",
      "dong": "",
      "type": "재개발",
      "stage": "도시환경정비사업구역",
      "stage_idx": 0,
      "lat": 37.59026001622124,
      "lng": 126.98237163655406,
      "area_m2": 12854,
      "units": 0,
      "contractor": "",
      "stage_date": "",
      "notes": "",
      "subway": "",
      "hangang": false,
      "completion_est": "",
      "ref_note": ""
    },
    {
      "id": "api_601",
      "name": "돈의문3재정비촉진구역",
      "region": "서울",
      "district": "종로구",
      "dong": "",
      "type": "재개발",
      "stage": "도시환경정비사업구역",
      "stage_idx": 0,
      "lat": 37.59150356710131,
      "lng": 126.97336245454693,
      "area_m2": 8844,
      "units": 0,
      "contractor": "",
      "stage_date": "",
      "notes": "",
      "subway": "",
      "hangang": false,
      "completion_est": "",
      "ref_note": ""
    },
    {
      "id": "api_618",
      "name": "영등포1-3재정비촉진구역",
      "region": "서울",
      "district": "영등포구",
      "dong": "",
      "type": "재개발",
      "stage": "도시환경정비사업구역",
      "stage_idx": 0,
      "lat": 37.52826353866637,
      "lng": 126.90539347406677,
      "area_m2": 8407,
      "units": 0,
      "contractor": "",
      "stage_date": "",
      "notes": "",
      "subway": "",
      "hangang": false,
      "completion_est": "",
      "ref_note": ""
    },
    {
      "id": "api_630",
      "name": "삼선제5구역 주택재개발 정비사업",
      "region": "서울",
      "district": "성북구",
      "dong": "",
      "type": "재개발",
      "stage": "주택재개발사업구역",
      "stage_idx": 0,
      "lat": 37.59397310393855,
      "lng": 127.00827140819452,
      "area_m2": 63780,
      "units": 0,
      "contractor": "",
      "stage_date": "",
      "notes": "",
      "subway": "",
      "hangang": false,
      "completion_est": "",
      "ref_note": ""
    },
    {
      "id": "api_631",
      "name": "영천구역 주택재개발정비구역",
      "region": "서울",
      "district": "서대문구",
      "dong": "",
      "type": "재개발",
      "stage": "일반분양승인",
      "stage_idx": 0,
      "lat": 37.57443601276397,
      "lng": 126.92782120483331,
      "area_m2": 11154,
      "units": 0,
      "contractor": "",
      "stage_date": "202402",
      "notes": "",
      "subway": "",
      "hangang": false,
      "completion_est": "",
      "ref_note": ""
    },
    {
      "id": "api_632",
      "name": "마포로5 도시정비형 재개발구역 9-1지구",
      "region": "서울",
      "district": "중구",
      "dong": "",
      "type": "재개발",
      "stage": "도시환경정비사업구역",
      "stage_idx": 0,
      "lat": 37.57225107738841,
      "lng": 127.00723294313208,
      "area_m2": 1936,
      "units": 0,
      "contractor": "",
      "stage_date": "",
      "notes": "",
      "subway": "",
      "hangang": false,
      "completion_est": "",
      "ref_note": ""
    },
    {
      "id": "api_633",
      "name": "수색4재정비촉진구역",
      "region": "서울",
      "district": "은평구",
      "dong": "",
      "type": "재개발",
      "stage": "이전고시",
      "stage_idx": 0,
      "lat": 37.60975271417682,
      "lng": 126.92120225394056,
      "area_m2": 61898,
      "units": 0,
      "contractor": "",
      "stage_date": "202112",
      "notes": "",
      "subway": "",
      "hangang": false,
      "completion_est": "",
      "ref_note": ""
    },
    {
      "id": "api_634",
      "name": "가락상아1차 아파트 재건축 정비사업",
      "region": "서울",
      "district": "송파구",
      "dong": "",
      "type": "재건축",
      "stage": "관리처분인가",
      "stage_idx": 3,
      "lat": 37.51889499967874,
      "lng": 127.10243776870136,
      "area_m2": 13580,
      "units": 0,
      "contractor": "",
      "stage_date": "202501",
      "notes": "",
      "subway": "",
      "hangang": false,
      "completion_est": "",
      "ref_note": ""
    },
    {
      "id": "api_635",
      "name": "오류동 현대연립 재건축 정비사업",
      "region": "서울",
      "district": "구로구",
      "dong": "",
      "type": "재건축",
      "stage": "주택재건축사업",
      "stage_idx": 0,
      "lat": 37.49504872017909,
      "lng": 126.87895998285721,
      "area_m2": 23223,
      "units": 0,
      "contractor": "",
      "stage_date": "",
      "notes": "",
      "subway": "",
      "hangang": false,
      "completion_est": "",
      "ref_note": ""
    },
    {
      "id": "api_639",
      "name": "미아3 재정비촉진구역 ",
      "region": "서울",
      "district": "강북구",
      "dong": "",
      "type": "재개발",
      "stage": "이주",
      "stage_idx": 4,
      "lat": 37.63463677879729,
      "lng": 127.03223376744826,
      "area_m2": 57558,
      "units": 0,
      "contractor": "",
      "stage_date": "202411",
      "notes": "",
      "subway": "",
      "hangang": false,
      "completion_est": "",
      "ref_note": ""
    },
    {
      "id": "api_640",
      "name": "미아9-2 주택재건축정비사업",
      "region": "서울",
      "district": "강북구",
      "dong": "",
      "type": "재건축",
      "stage": "주택재건축사업",
      "stage_idx": 0,
      "lat": 37.63024374819883,
      "lng": 127.02287085725744,
      "area_m2": 102518,
      "units": 0,
      "contractor": "",
      "stage_date": "",
      "notes": "",
      "subway": "",
      "hangang": false,
      "completion_est": "",
      "ref_note": ""
    },
    {
      "id": "api_641",
      "name": "거여2재정비촉진구역 (주택재개발사업)",
      "region": "서울",
      "district": "송파구",
      "dong": "",
      "type": "재개발",
      "stage": "주택재개발사업구역",
      "stage_idx": 0,
      "lat": 37.513022627407345,
      "lng": 127.11108092348874,
      "area_m2": 160288,
      "units": 0,
      "contractor": "",
      "stage_date": "",
      "notes": "",
      "subway": "",
      "hangang": false,
      "completion_est": "",
      "ref_note": ""
    },
    {
      "id": "api_642",
      "name": "개봉5 주택재건축 정비구역",
      "region": "서울",
      "district": "구로구",
      "dong": "",
      "type": "재건축",
      "stage": "준공인가",
      "stage_idx": 5,
      "lat": 37.50159739860376,
      "lng": 126.87989837654621,
      "area_m2": 13099,
      "units": 0,
      "contractor": "",
      "stage_date": "202412",
      "notes": "",
      "subway": "",
      "hangang": false,
      "completion_est": "",
      "ref_note": ""
    },
    {
      "id": "api_643",
      "name": "대흥제2구역 주택재개발사업",
      "region": "서울",
      "district": "마포구",
      "dong": "",
      "type": "재개발",
      "stage": "주택재개발사업구역",
      "stage_idx": 0,
      "lat": 37.5585641203955,
      "lng": 126.89886785642302,
      "area_m2": 61077,
      "units": 0,
      "contractor": "",
      "stage_date": "",
      "notes": "",
      "subway": "",
      "hangang": false,
      "completion_est": "",
      "ref_note": ""
    },
    {
      "id": "api_644",
      "name": "중앙동 새싹마을 관리형 주거환경개선사업",
      "region": "서울",
      "district": "관악구",
      "dong": "",
      "type": "재개발",
      "stage": "주거환경개선사업구역",
      "stage_idx": 0,
      "lat": 37.48115343802441,
      "lng": 126.95802283307759,
      "area_m2": 0,
      "units": 0,
      "contractor": "",
      "stage_date": "",
      "notes": "",
      "subway": "",
      "hangang": false,
      "completion_est": "",
      "ref_note": ""
    },
    {
      "id": "api_645",
      "name": "신수2 주택재건축 정비구역",
      "region": "서울",
      "district": "마포구",
      "dong": "",
      "type": "재건축",
      "stage": "주택재건축사업",
      "stage_idx": 0,
      "lat": 37.562694271858184,
      "lng": 126.91010558755426,
      "area_m2": 17264,
      "units": 0,
      "contractor": "",
      "stage_date": "",
      "notes": "",
      "subway": "",
      "hangang": false,
      "completion_est": "",
      "ref_note": ""
    },
    {
      "id": "api_646",
      "name": "영등포1-13재정비촉진구역",
      "region": "서울",
      "district": "영등포구",
      "dong": "",
      "type": "재개발",
      "stage": "도시환경정비사업구역",
      "stage_idx": 0,
      "lat": 37.51806702480049,
      "lng": 126.90101809948699,
      "area_m2": 27049,
      "units": 0,
      "contractor": "",
      "stage_date": "",
      "notes": "",
      "subway": "",
      "hangang": false,
      "completion_est": "",
      "ref_note": ""
    },
    {
      "id": "api_647",
      "name": "서울역-서대문 1.2 도시정비형 재개발구역",
      "region": "서울",
      "district": "중구",
      "dong": "",
      "type": "재개발",
      "stage": "도시환경정비사업구역",
      "stage_idx": 0,
      "lat": 37.56829803167536,
      "lng": 126.99777109053329,
      "area_m2": 80719,
      "units": 0,
      "contractor": "",
      "stage_date": "",
      "notes": "",
      "subway": "",
      "hangang": false,
      "completion_est": "",
      "ref_note": ""
    },
    {
      "id": "api_648",
      "name": "서울역-서대문 1,2 ",
      "region": "서울",
      "district": "중구",
      "dong": "",
      "type": "재개발",
      "stage": "도시환경정비사업지구",
      "stage_idx": 0,
      "lat": 37.57225903696735,
      "lng": 126.99784303443887,
      "area_m2": 22029,
      "units": 0,
      "contractor": "",
      "stage_date": "",
      "notes": "",
      "subway": "",
      "hangang": false,
      "completion_est": "",
      "ref_note": ""
    },
    {
      "id": "api_649",
      "name": "서울역-서대문 1.2",
      "region": "서울",
      "district": "중구",
      "dong": "",
      "type": "재개발",
      "stage": "도시환경정비사업지구",
      "stage_idx": 0,
      "lat": 37.568879620562015,
      "lng": 127.00786467409557,
      "area_m2": 1109,
      "units": 0,
      "contractor": "",
      "stage_date": "",
      "notes": "",
      "subway": "",
      "hangang": false,
      "completion_est": "",
      "ref_note": ""
    },
    {
      "id": "api_650",
      "name": "서울역-서대문 1.2",
      "region": "서울",
      "district": "중구",
      "dong": "",
      "type": "재개발",
      "stage": "도시환경정비사업지구",
      "stage_idx": 0,
      "lat": 37.55999394578538,
      "lng": 126.99611971146199,
      "area_m2": 1109,
      "units": 0,
      "contractor": "",
      "stage_date": "",
      "notes": "",
      "subway": "",
      "hangang": false,
      "completion_est": "",
      "ref_note": ""
    },
    {
      "id": "api_651",
      "name": "서울역-서대문 1.2",
      "region": "서울",
      "district": "중구",
      "dong": "",
      "type": "재개발",
      "stage": "도시환경정비사업지구",
      "stage_idx": 0,
      "lat": 37.56848944006718,
      "lng": 126.99589458197602,
      "area_m2": 1109,
      "units": 0,
      "contractor": "",
      "stage_date": "",
      "notes": "",
      "subway": "",
      "hangang": false,
      "completion_est": "",
      "ref_note": ""
    },
    {
      "id": "api_716",
      "name": "서울역-서대문 1.2",
      "region": "서울",
      "district": "중구",
      "dong": "",
      "type": "재개발",
      "stage": "도시환경정비사업지구",
      "stage_idx": 0,
      "lat": 37.564630477396165,
      "lng": 126.98956418066088,
      "area_m2": 6588,
      "units": 0,
      "contractor": "",
      "stage_date": "",
      "notes": "",
      "subway": "",
      "hangang": false,
      "completion_est": "",
      "ref_note": ""
    },
    {
      "id": "api_717",
      "name": "서울역-서대문 1.2구역 제1지구",
      "region": "서울",
      "district": "중구",
      "dong": "",
      "type": "재개발",
      "stage": "도시환경정비사업지구",
      "stage_idx": 0,
      "lat": 37.5623068657367,
      "lng": 126.99568832942195,
      "area_m2": 16316,
      "units": 0,
      "contractor": "",
      "stage_date": "",
      "notes": "",
      "subway": "",
      "hangang": false,
      "completion_est": "",
      "ref_note": ""
    },
    {
      "id": "api_718",
      "name": "영천구역 주택재개발정비구역",
      "region": "서울",
      "district": "서대문구",
      "dong": "",
      "type": "재개발",
      "stage": "일반분양승인",
      "stage_idx": 0,
      "lat": 37.58400767897524,
      "lng": 126.9379452753895,
      "area_m2": 10948,
      "units": 0,
      "contractor": "",
      "stage_date": "202402",
      "notes": "",
      "subway": "",
      "hangang": false,
      "completion_est": "",
      "ref_note": ""
    },
    {
      "id": "api_719",
      "name": "을지로2가 1.3.6.18",
      "region": "서울",
      "district": "중구",
      "dong": "",
      "type": "재개발",
      "stage": "도시환경정비사업지구",
      "stage_idx": 0,
      "lat": 37.5637851284136,
      "lng": 127.0038789090775,
      "area_m2": 0,
      "units": 0,
      "contractor": "",
      "stage_date": "",
      "notes": "",
      "subway": "",
      "hangang": false,
      "completion_est": "",
      "ref_note": ""
    },
    {
      "id": "api_720",
      "name": "을지로2가 2",
      "region": "서울",
      "district": "중구",
      "dong": "",
      "type": "재개발",
      "stage": "도시환경정비사업지구",
      "stage_idx": 0,
      "lat": 37.57048126707468,
      "lng": 126.99296722776182,
      "area_m2": 3473,
      "units": 0,
      "contractor": "",
      "stage_date": "",
      "notes": "",
      "subway": "",
      "hangang": false,
      "completion_est": "",
      "ref_note": ""
    },
    {
      "id": "api_721",
      "name": "을지로2가 18-1",
      "region": "서울",
      "district": "중구",
      "dong": "",
      "type": "재개발",
      "stage": "도시환경정비사업지구",
      "stage_idx": 0,
      "lat": 37.55875072075798,
      "lng": 127.00442640976779,
      "area_m2": 1477,
      "units": 0,
      "contractor": "",
      "stage_date": "",
      "notes": "",
      "subway": "",
      "hangang": false,
      "completion_est": "",
      "ref_note": ""
    },
    {
      "id": "api_722",
      "name": "을지로2가 18-2",
      "region": "서울",
      "district": "중구",
      "dong": "",
      "type": "재개발",
      "stage": "도시환경정비사업지구",
      "stage_idx": 0,
      "lat": 37.56561172991228,
      "lng": 126.98890000452356,
      "area_m2": 1477,
      "units": 0,
      "contractor": "",
      "stage_date": "",
      "notes": "",
      "subway": "",
      "hangang": false,
      "completion_est": "",
      "ref_note": ""
    },
    {
      "id": "api_857",
      "name": "주택재개발사업",
      "region": "서울",
      "district": "동작구",
      "dong": "",
      "type": "재개발",
      "stage": "일반분양승인",
      "stage_idx": 0,
      "lat": 37.51205589735705,
      "lng": 126.92984498539937,
      "area_m2": 35303,
      "units": 0,
      "contractor": "",
      "stage_date": "202604",
      "notes": "",
      "subway": "",
      "hangang": false,
      "completion_est": "",
      "ref_note": ""
    },
    {
      "id": "api_864",
      "name": "상아.현대아파트 주택재건축사업",
      "region": "서울",
      "district": "영등포구",
      "dong": "",
      "type": "재건축",
      "stage": "주택재건축사업",
      "stage_idx": 0,
      "lat": 37.519785060392586,
      "lng": 126.90132131631762,
      "area_m2": 29428,
      "units": 0,
      "contractor": "",
      "stage_date": "",
      "notes": "",
      "subway": "",
      "hangang": false,
      "completion_est": "",
      "ref_note": ""
    },
    {
      "id": "api_865",
      "name": "남구로역세권 공공임대주택 도시정비형 재개발정비구역",
      "region": "서울",
      "district": "구로구",
      "dong": "",
      "type": "재개발",
      "stage": "도시환경정비사업구역",
      "stage_idx": 0,
      "lat": 37.50465303079178,
      "lng": 126.89151179541375,
      "area_m2": 0,
      "units": 0,
      "contractor": "",
      "stage_date": "",
      "notes": "",
      "subway": "",
      "hangang": false,
      "completion_est": "",
      "ref_note": ""
    },
    {
      "id": "api_867",
      "name": "국화아파트 재건축정비구역",
      "region": "서울",
      "district": "영등포구",
      "dong": "",
      "type": "재건축",
      "stage": "재건축사업구역",
      "stage_idx": 0,
      "lat": 37.52991511918829,
      "lng": 126.9051207580611,
      "area_m2": 0,
      "units": 0,
      "contractor": "",
      "stage_date": "",
      "notes": "",
      "subway": "",
      "hangang": false,
      "completion_est": "",
      "ref_note": ""
    },
    {
      "id": "api_869",
      "name": "서울역-서대문 1.2",
      "region": "서울",
      "district": "중구",
      "dong": "",
      "type": "재개발",
      "stage": "도시환경정비사업지구",
      "stage_idx": 0,
      "lat": 37.563203584793484,
      "lng": 126.99468915932253,
      "area_m2": 1109,
      "units": 0,
      "contractor": "",
      "stage_date": "",
      "notes": "",
      "subway": "",
      "hangang": false,
      "completion_est": "",
      "ref_note": ""
    },
    {
      "id": "api_870",
      "name": "문래동2·3가B 도시정비형 재개발구역 ",
      "region": "서울",
      "district": "영등포구",
      "dong": "",
      "type": "재개발",
      "stage": "도시환경정비사업구역",
      "stage_idx": 0,
      "lat": 37.519831301038955,
      "lng": 126.88991866103134,
      "area_m2": 0,
      "units": 0,
      "contractor": "",
      "stage_date": "",
      "notes": "",
      "subway": "",
      "hangang": false,
      "completion_est": "",
      "ref_note": ""
    },
    {
      "id": "api_874",
      "name": "서소문5",
      "region": "서울",
      "district": "중구",
      "dong": "",
      "type": "재개발",
      "stage": "도시환경정비사업지구",
      "stage_idx": 0,
      "lat": 37.555691258201506,
      "lng": 126.99868983713148,
      "area_m2": 2917,
      "units": 0,
      "contractor": "",
      "stage_date": "",
      "notes": "",
      "subway": "",
      "hangang": false,
      "completion_est": "",
      "ref_note": ""
    },
    {
      "id": "api_875",
      "name": "서소문6",
      "region": "서울",
      "district": "중구",
      "dong": "",
      "type": "재개발",
      "stage": "도시환경정비사업지구",
      "stage_idx": 0,
      "lat": 37.5709703324506,
      "lng": 126.99908608909435,
      "area_m2": 2594,
      "units": 0,
      "contractor": "",
      "stage_date": "",
      "notes": "",
      "subway": "",
      "hangang": false,
      "completion_est": "",
      "ref_note": ""
    },
    {
      "id": "api_876",
      "name": "서소문8-1",
      "region": "서울",
      "district": "중구",
      "dong": "",
      "type": "재개발",
      "stage": "도시환경정비사업지구",
      "stage_idx": 0,
      "lat": 37.5685516870393,
      "lng": 126.99375263368893,
      "area_m2": 694,
      "units": 0,
      "contractor": "",
      "stage_date": "",
      "notes": "",
      "subway": "",
      "hangang": false,
      "completion_est": "",
      "ref_note": ""
    },
    {
      "id": "api_877",
      "name": "서소문8-2",
      "region": "서울",
      "district": "중구",
      "dong": "",
      "type": "재개발",
      "stage": "도시환경정비사업지구",
      "stage_idx": 0,
      "lat": 37.56670445433919,
      "lng": 127.00441002698504,
      "area_m2": 1208,
      "units": 0,
      "contractor": "",
      "stage_date": "",
      "notes": "",
      "subway": "",
      "hangang": false,
      "completion_est": "",
      "ref_note": ""
    },
    {
      "id": "api_878",
      "name": "서소문9",
      "region": "서울",
      "district": "중구",
      "dong": "",
      "type": "재개발",
      "stage": "도시환경정비사업지구",
      "stage_idx": 0,
      "lat": 37.56635204928611,
      "lng": 127.00214840921444,
      "area_m2": 4253,
      "units": 0,
      "contractor": "",
      "stage_date": "",
      "notes": "",
      "subway": "",
      "hangang": false,
      "completion_est": "",
      "ref_note": ""
    },
    {
      "id": "api_895",
      "name": "신길우성2차·우창아파트 재건축 정비사업",
      "region": "서울",
      "district": "영등포구",
      "dong": "",
      "type": "재건축",
      "stage": "관리처분인가",
      "stage_idx": 3,
      "lat": 37.53493000805313,
      "lng": 126.9030648760401,
      "area_m2": 0,
      "units": 0,
      "contractor": "",
      "stage_date": "202606",
      "notes": "",
      "subway": "",
      "hangang": false,
      "completion_est": "",
      "ref_note": ""
    },
    {
      "id": "api_896",
      "name": "제기 도시정비형 재개발구역",
      "region": "서울",
      "district": "동대문구",
      "dong": "",
      "type": "재개발",
      "stage": "도시환경정비사업구역",
      "stage_idx": 0,
      "lat": 37.58178134868214,
      "lng": 127.03970517924841,
      "area_m2": 124640,
      "units": 0,
      "contractor": "",
      "stage_date": "",
      "notes": "",
      "subway": "",
      "hangang": false,
      "completion_est": "",
      "ref_note": ""
    },
    {
      "id": "api_898",
      "name": "신정1재정비촉진구역",
      "region": "서울",
      "district": "양천구",
      "dong": "",
      "type": "재개발",
      "stage": "주택재개발사업구역",
      "stage_idx": 0,
      "lat": 37.51524676317193,
      "lng": 126.85741036047389,
      "area_m2": 254260,
      "units": 0,
      "contractor": "",
      "stage_date": "",
      "notes": "",
      "subway": "",
      "hangang": false,
      "completion_est": "",
      "ref_note": ""
    },
    {
      "id": "api_899",
      "name": "천왕역세권 공공임대주택 건립관련 도시환경정비사업",
      "region": "서울",
      "district": "구로구",
      "dong": "",
      "type": "재개발",
      "stage": "도시환경정비사업구역",
      "stage_idx": 0,
      "lat": 37.49194725125023,
      "lng": 126.89437314864378,
      "area_m2": 10451,
      "units": 0,
      "contractor": "",
      "stage_date": "",
      "notes": "",
      "subway": "",
      "hangang": false,
      "completion_est": "",
      "ref_note": ""
    },
    {
      "id": "api_900",
      "name": "둔촌동 삼익빌라 주택재건축정비사업",
      "region": "서울",
      "district": "강동구",
      "dong": "",
      "type": "재건축",
      "stage": "주택재건축사업",
      "stage_idx": 0,
      "lat": 37.52993180742194,
      "lng": 127.12437267461671,
      "area_m2": 9914,
      "units": 0,
      "contractor": "",
      "stage_date": "",
      "notes": "",
      "subway": "",
      "hangang": false,
      "completion_est": "",
      "ref_note": ""
    },
    {
      "id": "api_901",
      "name": "면목3 주택재건축구역",
      "region": "서울",
      "district": "중랑구",
      "dong": "",
      "type": "재건축",
      "stage": "주택재건축사업",
      "stage_idx": 0,
      "lat": 37.60127016377874,
      "lng": 127.09114596142841,
      "area_m2": 68255,
      "units": 0,
      "contractor": "",
      "stage_date": "",
      "notes": "",
      "subway": "",
      "hangang": false,
      "completion_est": "",
      "ref_note": ""
    },
    {
      "id": "api_902",
      "name": "이문1재정비촉진구역",
      "region": "서울",
      "district": "동대문구",
      "dong": "",
      "type": "재개발",
      "stage": "주택재개발사업구역",
      "stage_idx": 0,
      "lat": 37.572086837269254,
      "lng": 127.04651987942208,
      "area_m2": 144964,
      "units": 0,
      "contractor": "",
      "stage_date": "",
      "notes": "",
      "subway": "",
      "hangang": false,
      "completion_est": "",
      "ref_note": ""
    },
    {
      "id": "api_903",
      "name": "이문3(3-1) 재정비촉진구역",
      "region": "서울",
      "district": "동대문구",
      "dong": "",
      "type": "재개발",
      "stage": "주택재개발사업구역",
      "stage_idx": 0,
      "lat": 37.570938822454906,
      "lng": 127.04183818305103,
      "area_m2": 133505,
      "units": 0,
      "contractor": "",
      "stage_date": "",
      "notes": "",
      "subway": "",
      "hangang": false,
      "completion_est": "",
      "ref_note": ""
    },
    {
      "id": "api_905",
      "name": "장위10구역 ",
      "region": "서울",
      "district": "성북구",
      "dong": "",
      "type": "재개발",
      "stage": "주택재개발사업구역",
      "stage_idx": 0,
      "lat": 37.59090387376287,
      "lng": 127.02082153177706,
      "area_m2": 94072,
      "units": 0,
      "contractor": "",
      "stage_date": "",
      "notes": "",
      "subway": "",
      "hangang": false,
      "completion_est": "",
      "ref_note": ""
    },
    {
      "id": "api_906",
      "name": "오류2동 147번지 일대 주거환경관리 정비구역 ",
      "region": "서울",
      "district": "구로구",
      "dong": "",
      "type": "재개발",
      "stage": "주거환경관리사업",
      "stage_idx": 0,
      "lat": 37.49018395963795,
      "lng": 126.88463423202886,
      "area_m2": 178630,
      "units": 0,
      "contractor": "",
      "stage_date": "",
      "notes": "",
      "subway": "",
      "hangang": false,
      "completion_est": "",
      "ref_note": ""
    },
    {
      "id": "api_907",
      "name": "신길10재정비촉진구역",
      "region": "서울",
      "district": "영등포구",
      "dong": "",
      "type": "재개발",
      "stage": "주택재건축사업",
      "stage_idx": 0,
      "lat": 37.52747430664298,
      "lng": 126.88763451909422,
      "area_m2": 32234,
      "units": 0,
      "contractor": "",
      "stage_date": "",
      "notes": "",
      "subway": "",
      "hangang": false,
      "completion_est": "",
      "ref_note": ""
    },
    {
      "id": "api_908",
      "name": "신문로제2구역 제8지구 도시정비형 재개발사업",
      "region": "서울",
      "district": "종로구",
      "dong": "",
      "type": "재개발",
      "stage": "도시환경정비사업구역",
      "stage_idx": 0,
      "lat": 37.597564411584415,
      "lng": 126.97122608758949,
      "area_m2": 7052,
      "units": 0,
      "contractor": "",
      "stage_date": "",
      "notes": "",
      "subway": "",
      "hangang": false,
      "completion_est": "",
      "ref_note": ""
    },
    {
      "id": "api_909",
      "name": "홍은제14 주택재개발정비구역",
      "region": "서울",
      "district": "서대문구",
      "dong": "",
      "type": "재개발",
      "stage": "이전고시",
      "stage_idx": 0,
      "lat": 37.56996955230023,
      "lng": 126.94598898324571,
      "area_m2": 22882,
      "units": 0,
      "contractor": "",
      "stage_date": "202009",
      "notes": "",
      "subway": "",
      "hangang": false,
      "completion_est": "",
      "ref_note": ""
    },
    {
      "id": "api_910",
      "name": "상봉7재정비촉진구역",
      "region": "서울",
      "district": "중랑구",
      "dong": "",
      "type": "재개발",
      "stage": "도시환경정비사업구역",
      "stage_idx": 0,
      "lat": 37.6145297517831,
      "lng": 127.09397759397875,
      "area_m2": 14990,
      "units": 0,
      "contractor": "",
      "stage_date": "",
      "notes": "",
      "subway": "",
      "hangang": false,
      "completion_est": "",
      "ref_note": ""
    },
    {
      "id": "api_935",
      "name": "순화 도시정비형 재개발구역",
      "region": "서울",
      "district": "중구",
      "dong": "",
      "type": "재개발",
      "stage": "도시환경정비사업구역",
      "stage_idx": 0,
      "lat": 37.56187400018579,
      "lng": 127.00115856746231,
      "area_m2": 15092,
      "units": 0,
      "contractor": "",
      "stage_date": "",
      "notes": "",
      "subway": "",
      "hangang": false,
      "completion_est": "",
      "ref_note": ""
    },
    {
      "id": "api_936",
      "name": "순화 도시정비형 재개발구역 제1-2지구",
      "region": "서울",
      "district": "중구",
      "dong": "",
      "type": "재개발",
      "stage": "도시환경정비사업구역",
      "stage_idx": 0,
      "lat": 37.55553764697317,
      "lng": 127.00407301096037,
      "area_m2": 1979,
      "units": 0,
      "contractor": "",
      "stage_date": "",
      "notes": "",
      "subway": "",
      "hangang": false,
      "completion_est": "",
      "ref_note": ""
    },
    {
      "id": "api_937",
      "name": "삼선제5구역 주택재개발 정비사업",
      "region": "서울",
      "district": "성북구",
      "dong": "",
      "type": "재개발",
      "stage": "주택재개발사업구역",
      "stage_idx": 0,
      "lat": 37.593121064205896,
      "lng": 127.02436591909098,
      "area_m2": 63936,
      "units": 0,
      "contractor": "",
      "stage_date": "",
      "notes": "",
      "subway": "",
      "hangang": false,
      "completion_est": "",
      "ref_note": ""
    },
    {
      "id": "api_938",
      "name": "동선제2구역 주택재개발정비사업",
      "region": "서울",
      "district": "성북구",
      "dong": "",
      "type": "재개발",
      "stage": "주택재개발사업구역",
      "stage_idx": 0,
      "lat": 37.59921834814019,
      "lng": 127.0081462925232,
      "area_m2": 15637,
      "units": 0,
      "contractor": "",
      "stage_date": "",
      "notes": "",
      "subway": "",
      "hangang": false,
      "completion_est": "",
      "ref_note": ""
    },
    {
      "id": "api_940",
      "name": "이문1재정비촉진구역",
      "region": "서울",
      "district": "동대문구",
      "dong": "",
      "type": "재개발",
      "stage": "준공인가",
      "stage_idx": 5,
      "lat": 37.56704257385383,
      "lng": 127.03582580599583,
      "area_m2": 144856,
      "units": 0,
      "contractor": "",
      "stage_date": "202509",
      "notes": "",
      "subway": "",
      "hangang": false,
      "completion_est": "",
      "ref_note": ""
    },
    {
      "id": "api_941",
      "name": "잠실진주아파트 재건축사업",
      "region": "서울",
      "district": "송파구",
      "dong": "",
      "type": "재건축",
      "stage": "재건축사업구역",
      "stage_idx": 0,
      "lat": 37.52319967606646,
      "lng": 127.10830254912395,
      "area_m2": 112558,
      "units": 0,
      "contractor": "",
      "stage_date": "",
      "notes": "",
      "subway": "",
      "hangang": false,
      "completion_est": "",
      "ref_note": ""
    },
    {
      "id": "api_942",
      "name": "신촌지역(서대문)도시정비형 재개발구역",
      "region": "서울",
      "district": "서대문구",
      "dong": "",
      "type": "재개발",
      "stage": "도시환경정비사업구역",
      "stage_idx": 0,
      "lat": 37.582753802640184,
      "lng": 126.93182697814161,
      "area_m2": 4597,
      "units": 0,
      "contractor": "",
      "stage_date": "",
      "notes": "",
      "subway": "",
      "hangang": false,
      "completion_est": "",
      "ref_note": ""
    },
    {
      "id": "api_943",
      "name": "문래동1가A 도시정비형 재개발구역 ",
      "region": "서울",
      "district": "영등포구",
      "dong": "",
      "type": "재개발",
      "stage": "도시환경정비사업구역",
      "stage_idx": 0,
      "lat": 37.52864413005588,
      "lng": 126.90122180707809,
      "area_m2": 0,
      "units": 0,
      "contractor": "",
      "stage_date": "",
      "notes": "",
      "subway": "",
      "hangang": false,
      "completion_est": "",
      "ref_note": ""
    },
    {
      "id": "api_944",
      "name": "문래동1가B 도시정비형 재개발구역 ",
      "region": "서울",
      "district": "영등포구",
      "dong": "",
      "type": "재개발",
      "stage": "도시환경정비사업구역",
      "stage_idx": 0,
      "lat": 37.528038804966876,
      "lng": 126.90377267505296,
      "area_m2": 0,
      "units": 0,
      "contractor": "",
      "stage_date": "",
      "notes": "",
      "subway": "",
      "hangang": false,
      "completion_est": "",
      "ref_note": ""
    },
    {
      "id": "api_964",
      "name": "문래동2가A 도시정비형 재개발구역 ",
      "region": "서울",
      "district": "영등포구",
      "dong": "",
      "type": "재개발",
      "stage": "도시환경정비사업구역",
      "stage_idx": 0,
      "lat": 37.527545789111215,
      "lng": 126.89117725152724,
      "area_m2": 0,
      "units": 0,
      "contractor": "",
      "stage_date": "",
      "notes": "",
      "subway": "",
      "hangang": false,
      "completion_est": "",
      "ref_note": ""
    },
    {
      "id": "api_965",
      "name": "문래동2가B 도시정비형 재개발구역 ",
      "region": "서울",
      "district": "영등포구",
      "dong": "",
      "type": "재개발",
      "stage": "도시환경정비사업구역",
      "stage_idx": 0,
      "lat": 37.51878343348972,
      "lng": 126.89982350668507,
      "area_m2": 0,
      "units": 0,
      "contractor": "",
      "stage_date": "",
      "notes": "",
      "subway": "",
      "hangang": false,
      "completion_est": "",
      "ref_note": ""
    },
    {
      "id": "api_966",
      "name": "문래동4가 도시환경정비구역",
      "region": "서울",
      "district": "영등포구",
      "dong": "",
      "type": "재개발",
      "stage": "설계자선정",
      "stage_idx": 0,
      "lat": 37.51956490306312,
      "lng": 126.90293949119095,
      "area_m2": 94087,
      "units": 0,
      "contractor": "",
      "stage_date": "202505",
      "notes": "",
      "subway": "",
      "hangang": false,
      "completion_est": "",
      "ref_note": ""
    },
    {
      "id": "api_967",
      "name": "북아현2 재정비촉진구역 ",
      "region": "서울",
      "district": "서대문구",
      "dong": "",
      "type": "재개발",
      "stage": "관리처분인가",
      "stage_idx": 3,
      "lat": 37.58537754508879,
      "lng": 126.9415894850697,
      "area_m2": 124270,
      "units": 0,
      "contractor": "",
      "stage_date": "202604",
      "notes": "",
      "subway": "",
      "hangang": false,
      "completion_est": "",
      "ref_note": ""
    },
    {
      "id": "api_968",
      "name": "효창제6구역주택재개발정비사업",
      "region": "서울",
      "district": "용산구",
      "dong": "",
      "type": "재개발",
      "stage": "주택재개발사업구역",
      "stage_idx": 0,
      "lat": 37.52409966413738,
      "lng": 126.97215727618841,
      "area_m2": 18171,
      "units": 0,
      "contractor": "",
      "stage_date": "",
      "notes": "",
      "subway": "",
      "hangang": false,
      "completion_est": "",
      "ref_note": ""
    },
    {
      "id": "api_969",
      "name": "방화5재정비촉진구역 (주택재건축사업) ",
      "region": "서울",
      "district": "강서구",
      "dong": "",
      "type": "재건축",
      "stage": "주택재건축사업",
      "stage_idx": 0,
      "lat": 37.543427342120125,
      "lng": 126.85834336654888,
      "area_m2": 99520,
      "units": 0,
      "contractor": "",
      "stage_date": "",
      "notes": "",
      "subway": "",
      "hangang": false,
      "completion_est": "",
      "ref_note": ""
    },
    {
      "id": "api_971",
      "name": "수색4재정비촉진구역(주택재개발사업)",
      "region": "서울",
      "district": "은평구",
      "dong": "",
      "type": "재개발",
      "stage": "주택재개발사업구역",
      "stage_idx": 0,
      "lat": 37.59563171583387,
      "lng": 126.92472571674577,
      "area_m2": 61889,
      "units": 0,
      "contractor": "",
      "stage_date": "",
      "notes": "",
      "subway": "",
      "hangang": false,
      "completion_est": "",
      "ref_note": ""
    },
    {
      "id": "api_972",
      "name": "가재울6 재정비촉진구역",
      "region": "서울",
      "district": "서대문구",
      "dong": "",
      "type": "재개발",
      "stage": "주택재개발사업구역",
      "stage_idx": 0,
      "lat": 37.583452071013944,
      "lng": 126.92731888936008,
      "area_m2": 48084,
      "units": 0,
      "contractor": "",
      "stage_date": "",
      "notes": "",
      "subway": "",
      "hangang": false,
      "completion_est": "",
      "ref_note": ""
    },
    {
      "id": "api_987",
      "name": "도시정비형 재개발사업구역",
      "region": "서울",
      "district": "중구",
      "dong": "",
      "type": "재개발",
      "stage": "재개발사업지구",
      "stage_idx": 0,
      "lat": 37.567102982351216,
      "lng": 126.99720123291773,
      "area_m2": 2918,
      "units": 0,
      "contractor": "",
      "stage_date": "",
      "notes": "",
      "subway": "",
      "hangang": false,
      "completion_est": "",
      "ref_note": ""
    },
    {
      "id": "api_990",
      "name": "중구 다산권 성곽마을 관리형 주거환경개선사업",
      "region": "서울",
      "district": "중구",
      "dong": "",
      "type": "재개발",
      "stage": "주거환경개선사업구역",
      "stage_idx": 0,
      "lat": 37.557165228371495,
      "lng": 126.99306030805415,
      "area_m2": 0,
      "units": 0,
      "contractor": "",
      "stage_date": "",
      "notes": "",
      "subway": "",
      "hangang": false,
      "completion_est": "",
      "ref_note": ""
    },
    {
      "id": "api_991",
      "name": "서울특별시 마포구 창전동 27-19호 일대",
      "region": "서울",
      "district": "마포구",
      "dong": "",
      "type": "재개발",
      "stage": "주택재건축사업",
      "stage_idx": 0,
      "lat": 37.56848991723939,
      "lng": 126.91763985623146,
      "area_m2": 14770,
      "units": 0,
      "contractor": "",
      "stage_date": "",
      "notes": "",
      "subway": "",
      "hangang": false,
      "completion_est": "",
      "ref_note": ""
    },
    {
      "id": "api_1013",
      "name": "개포시영아파트 중심상가재건축정비사업",
      "region": "서울",
      "district": "강남구",
      "dong": "",
      "type": "재건축",
      "stage": "재건축사업구역",
      "stage_idx": 0,
      "lat": 37.523520864254166,
      "lng": 127.05293999633702,
      "area_m2": 0,
      "units": 0,
      "contractor": "",
      "stage_date": "",
      "notes": "",
      "subway": "",
      "hangang": false,
      "completion_est": "",
      "ref_note": ""
    },
    {
      "id": "api_1016",
      "name": "국제빌딩주변 도시정비형 재개발구역",
      "region": "서울",
      "district": "용산구",
      "dong": "",
      "type": "재개발",
      "stage": "도시환경정비사업구역",
      "stage_idx": 0,
      "lat": 37.534437456457134,
      "lng": 126.96974022853773,
      "area_m2": 109965,
      "units": 0,
      "contractor": "",
      "stage_date": "",
      "notes": "",
      "subway": "",
      "hangang": false,
      "completion_est": "",
      "ref_note": ""
    },
    {
      "id": "api_1017",
      "name": "4구역",
      "region": "서울",
      "district": "용산구",
      "dong": "",
      "type": "재개발",
      "stage": "도시환경정비사업구역",
      "stage_idx": 0,
      "lat": 37.53885110309501,
      "lng": 126.98052092550644,
      "area_m2": 53066,
      "units": 0,
      "contractor": "",
      "stage_date": "",
      "notes": "",
      "subway": "",
      "hangang": false,
      "completion_est": "",
      "ref_note": ""
    },
    {
      "id": "api_1018",
      "name": "응암제11구역 주택재개발정비사업",
      "region": "서울",
      "district": "은평구",
      "dong": "",
      "type": "재개발",
      "stage": "주택재개발사업구역",
      "stage_idx": 0,
      "lat": 37.596217390054164,
      "lng": 126.92137804814826,
      "area_m2": 36242,
      "units": 0,
      "contractor": "",
      "stage_date": "",
      "notes": "",
      "subway": "",
      "hangang": false,
      "completion_est": "",
      "ref_note": ""
    },
    {
      "id": "api_1020",
      "name": "서소문8-3",
      "region": "서울",
      "district": "중구",
      "dong": "",
      "type": "재개발",
      "stage": "도시환경정비사업지구",
      "stage_idx": 0,
      "lat": 37.57108985794667,
      "lng": 126.99004633195813,
      "area_m2": 1172,
      "units": 0,
      "contractor": "",
      "stage_date": "",
      "notes": "",
      "subway": "",
      "hangang": false,
      "completion_est": "",
      "ref_note": ""
    },
    {
      "id": "api_1021",
      "name": "갈현제1구역 주택재개발정비사업",
      "region": "서울",
      "district": "은평구",
      "dong": "",
      "type": "재개발",
      "stage": "착공신고",
      "stage_idx": 4,
      "lat": 37.59720152857848,
      "lng": 126.93854666588176,
      "area_m2": 238850,
      "units": 0,
      "contractor": "",
      "stage_date": "202512",
      "notes": "",
      "subway": "",
      "hangang": false,
      "completion_est": "",
      "ref_note": ""
    },
    {
      "id": "api_1022",
      "name": "용답동 108-1번지 일대 주택재개발정비사업",
      "region": "서울",
      "district": "성동구",
      "dong": "",
      "type": "재개발",
      "stage": "주택재개발사업구역",
      "stage_idx": 0,
      "lat": 37.565408951647484,
      "lng": 127.04659808936832,
      "area_m2": 73341,
      "units": 0,
      "contractor": "",
      "stage_date": "",
      "notes": "",
      "subway": "",
      "hangang": false,
      "completion_est": "",
      "ref_note": ""
    },
    {
      "id": "api_1023",
      "name": "노량진6재정비촉진구역 ",
      "region": "서울",
      "district": "동작구",
      "dong": "",
      "type": "재개발",
      "stage": "일반분양승인",
      "stage_idx": 0,
      "lat": 37.51413485265703,
      "lng": 126.937644116239,
      "area_m2": 72809,
      "units": 0,
      "contractor": "",
      "stage_date": "202604",
      "notes": "",
      "subway": "",
      "hangang": false,
      "completion_est": "",
      "ref_note": ""
    },
    {
      "id": "api_1038",
      "name": "북아현2 재정비촉진구역 ",
      "region": "서울",
      "district": "서대문구",
      "dong": "",
      "type": "재개발",
      "stage": "관리처분인가",
      "stage_idx": 3,
      "lat": 37.58252415899692,
      "lng": 126.93741872072204,
      "area_m2": 120055,
      "units": 0,
      "contractor": "",
      "stage_date": "202604",
      "notes": "",
      "subway": "",
      "hangang": false,
      "completion_est": "",
      "ref_note": ""
    },
    {
      "id": "api_1040",
      "name": "한강맨션아파트 주택재건축정비구역",
      "region": "서울",
      "district": "용산구",
      "dong": "",
      "type": "재건축",
      "stage": "관리처분인가",
      "stage_idx": 3,
      "lat": 37.522029584861805,
      "lng": 126.97412552667107,
      "area_m2": 84096,
      "units": 0,
      "contractor": "",
      "stage_date": "202211",
      "notes": "",
      "subway": "",
      "hangang": false,
      "completion_est": "",
      "ref_note": ""
    },
    {
      "id": "api_1041",
      "name": "상계4재정비촉진구역 ",
      "region": "서울",
      "district": "노원구",
      "dong": "",
      "type": "재개발",
      "stage": "이전고시",
      "stage_idx": 0,
      "lat": 37.648566878198125,
      "lng": 127.05900095381038,
      "area_m2": 39960,
      "units": 0,
      "contractor": "",
      "stage_date": "202103",
      "notes": "",
      "subway": "",
      "hangang": false,
      "completion_est": "",
      "ref_note": ""
    },
    {
      "id": "api_1042",
      "name": "가락삼익맨숀 아파트 재건축정비사업",
      "region": "서울",
      "district": "송파구",
      "dong": "",
      "type": "재건축",
      "stage": "관리처분인가",
      "stage_idx": 3,
      "lat": 37.519986451219296,
      "lng": 127.09961428122384,
      "area_m2": 62059,
      "units": 0,
      "contractor": "",
      "stage_date": "202510",
      "notes": "",
      "subway": "",
      "hangang": false,
      "completion_est": "",
      "ref_note": ""
    },
    {
      "id": "api_1043",
      "name": "수정아파트 재건축정비사업",
      "region": "서울",
      "district": "양천구",
      "dong": "",
      "type": "재건축",
      "stage": "관리처분인가",
      "stage_idx": 3,
      "lat": 37.52253927681761,
      "lng": 126.87579613371975,
      "area_m2": 0,
      "units": 0,
      "contractor": "",
      "stage_date": "202412",
      "notes": "",
      "subway": "",
      "hangang": false,
      "completion_est": "",
      "ref_note": ""
    },
    {
      "id": "api_1044",
      "name": "개포시영아파트 주택재건축정비사업",
      "region": "서울",
      "district": "강남구",
      "dong": "",
      "type": "재건축",
      "stage": "주택재건축사업",
      "stage_idx": 0,
      "lat": 37.50776080154399,
      "lng": 127.0377473661894,
      "area_m2": 115910,
      "units": 0,
      "contractor": "",
      "stage_date": "",
      "notes": "",
      "subway": "",
      "hangang": false,
      "completion_est": "",
      "ref_note": ""
    },
    {
      "id": "api_1046",
      "name": "월계동 487-17일대 주택재건축 정비사업",
      "region": "서울",
      "district": "노원구",
      "dong": "",
      "type": "재건축",
      "stage": "주택재건축사업",
      "stage_idx": 0,
      "lat": 37.65899920089225,
      "lng": 127.05787795287955,
      "area_m2": 14704,
      "units": 0,
      "contractor": "",
      "stage_date": "",
      "notes": "",
      "subway": "",
      "hangang": false,
      "completion_est": "",
      "ref_note": ""
    },
    {
      "id": "api_1047",
      "name": "응암제2구역 주택재개발정비사업",
      "region": "서울",
      "district": "은평구",
      "dong": "",
      "type": "재개발",
      "stage": "주택재개발사업구역",
      "stage_idx": 0,
      "lat": 37.59669667496387,
      "lng": 126.9225992518035,
      "area_m2": 120765,
      "units": 0,
      "contractor": "",
      "stage_date": "",
      "notes": "",
      "subway": "",
      "hangang": false,
      "completion_est": "",
      "ref_note": ""
    },
    {
      "id": "api_1111",
      "name": "가락프라자아파트 주택재건축사업 ",
      "region": "서울",
      "district": "송파구",
      "dong": "",
      "type": "재건축",
      "stage": "주택재건축사업",
      "stage_idx": 0,
      "lat": 37.5069476290489,
      "lng": 127.111761773422,
      "area_m2": 47807,
      "units": 0,
      "contractor": "",
      "stage_date": "",
      "notes": "",
      "subway": "",
      "hangang": false,
      "completion_est": "",
      "ref_note": ""
    },
    {
      "id": "api_1112",
      "name": "월계동 487-17번지 일대 주택재건축정비사업",
      "region": "서울",
      "district": "노원구",
      "dong": "",
      "type": "재건축",
      "stage": "주택재건축사업",
      "stage_idx": 0,
      "lat": 37.64561293233516,
      "lng": 127.05191516236158,
      "area_m2": 14704,
      "units": 0,
      "contractor": "",
      "stage_date": "",
      "notes": "",
      "subway": "",
      "hangang": false,
      "completion_est": "",
      "ref_note": ""
    },
    {
      "id": "api_1127",
      "name": "성북제2-신월곡1 결합정비사업",
      "region": "서울",
      "district": "성북구",
      "dong": "",
      "type": "재개발",
      "stage": "결합정비구역",
      "stage_idx": 0,
      "lat": 37.59065313225576,
      "lng": 127.00972098505055,
      "area_m2": 129866,
      "units": 0,
      "contractor": "",
      "stage_date": "",
      "notes": "",
      "subway": "",
      "hangang": false,
      "completion_est": "",
      "ref_note": ""
    },
    {
      "id": "api_1128",
      "name": "연희 제1주택재건축정비구역",
      "region": "서울",
      "district": "서대문구",
      "dong": "",
      "type": "재건축",
      "stage": "일반분양승인",
      "stage_idx": 0,
      "lat": 37.570908170506044,
      "lng": 126.943399333054,
      "area_m2": 19468,
      "units": 0,
      "contractor": "",
      "stage_date": "202601",
      "notes": "",
      "subway": "",
      "hangang": false,
      "completion_est": "",
      "ref_note": ""
    },
    {
      "id": "api_1292",
      "name": "대흥제2구역주택재개발사업",
      "region": "서울",
      "district": "마포구",
      "dong": "",
      "type": "재개발",
      "stage": "주택재개발사업구역",
      "stage_idx": 0,
      "lat": 37.56084238082755,
      "lng": 126.89916765684016,
      "area_m2": 62245,
      "units": 0,
      "contractor": "",
      "stage_date": "",
      "notes": "",
      "subway": "",
      "hangang": false,
      "completion_est": "",
      "ref_note": ""
    },
    {
      "id": "api_1541",
      "name": "장위1 재정비촉진구역",
      "region": "서울",
      "district": "성북구",
      "dong": "",
      "type": "재개발",
      "stage": "주택재개발사업지구",
      "stage_idx": 0,
      "lat": 37.59653859921552,
      "lng": 127.02573629108979,
      "area_m2": 80513,
      "units": 0,
      "contractor": "",
      "stage_date": "",
      "notes": "",
      "subway": "",
      "hangang": false,
      "completion_est": "",
      "ref_note": ""
    },
    {
      "id": "api_1975",
      "name": "대흥제2구역 주택재개발사업",
      "region": "서울",
      "district": "마포구",
      "dong": "",
      "type": "재개발",
      "stage": "주택재개발사업구역",
      "stage_idx": 0,
      "lat": 37.5554061883837,
      "lng": 126.90248268432201,
      "area_m2": 62260,
      "units": 0,
      "contractor": "",
      "stage_date": "",
      "notes": "",
      "subway": "",
      "hangang": false,
      "completion_est": "",
      "ref_note": ""
    },
    {
      "id": "api_2081",
      "name": "이문4재정비촉진구역",
      "region": "서울",
      "district": "동대문구",
      "dong": "",
      "type": "재개발",
      "stage": "주택재개발사업구역",
      "stage_idx": 0,
      "lat": 37.577934649685155,
      "lng": 127.0420290231679,
      "area_m2": 151388,
      "units": 0,
      "contractor": "",
      "stage_date": "",
      "notes": "",
      "subway": "",
      "hangang": false,
      "completion_est": "",
      "ref_note": ""
    },
    {
      "id": "api_2082",
      "name": "신길14재정비촉진구역",
      "region": "서울",
      "district": "영등포구",
      "dong": "",
      "type": "재개발",
      "stage": "주택재개발사업구역",
      "stage_idx": 0,
      "lat": 37.530909166743506,
      "lng": 126.90597184313391,
      "area_m2": 27844,
      "units": 0,
      "contractor": "",
      "stage_date": "",
      "notes": "",
      "subway": "",
      "hangang": false,
      "completion_est": "",
      "ref_note": ""
    },
    {
      "id": "api_2083",
      "name": "공평지구<H9>",
      "region": "서울",
      "district": "종로구",
      "dong": "",
      "type": "재개발",
      "stage": "도시환경정비사업구역",
      "stage_idx": 0,
      "lat": 37.594719109189825,
      "lng": 126.97974333207235,
      "area_m2": 127,
      "units": 0,
      "contractor": "",
      "stage_date": "",
      "notes": "",
      "subway": "",
      "hangang": false,
      "completion_est": "",
      "ref_note": ""
    },
    {
      "id": "api_2084",
      "name": "을지로2가 19-1",
      "region": "서울",
      "district": "중구",
      "dong": "",
      "type": "재개발",
      "stage": "도시환경정비사업지구",
      "stage_idx": 0,
      "lat": 37.565583494169374,
      "lng": 127.00313036200941,
      "area_m2": 1477,
      "units": 0,
      "contractor": "",
      "stage_date": "",
      "notes": "",
      "subway": "",
      "hangang": false,
      "completion_est": "",
      "ref_note": ""
    },
    {
      "id": "api_2085",
      "name": "을지로2가 19-3",
      "region": "서울",
      "district": "중구",
      "dong": "",
      "type": "재개발",
      "stage": "도시환경정비사업지구",
      "stage_idx": 0,
      "lat": 37.56194673501271,
      "lng": 126.99694145916203,
      "area_m2": 1477,
      "units": 0,
      "contractor": "",
      "stage_date": "",
      "notes": "",
      "subway": "",
      "hangang": false,
      "completion_est": "",
      "ref_note": ""
    },
    {
      "id": "api_2086",
      "name": "을지로2가 19-4",
      "region": "서울",
      "district": "중구",
      "dong": "",
      "type": "재개발",
      "stage": "도시환경정비사업지구",
      "stage_idx": 0,
      "lat": 37.5592105268917,
      "lng": 127.00628457071701,
      "area_m2": 1477,
      "units": 0,
      "contractor": "",
      "stage_date": "",
      "notes": "",
      "subway": "",
      "hangang": false,
      "completion_est": "",
      "ref_note": ""
    },
    {
      "id": "api_2087",
      "name": "을지로2가 20-1",
      "region": "서울",
      "district": "중구",
      "dong": "",
      "type": "재개발",
      "stage": "도시환경정비사업지구",
      "stage_idx": 0,
      "lat": 37.57386703009788,
      "lng": 126.99189736916168,
      "area_m2": 0,
      "units": 0,
      "contractor": "",
      "stage_date": "",
      "notes": "",
      "subway": "",
      "hangang": false,
      "completion_est": "",
      "ref_note": ""
    },
    {
      "id": "api_2088",
      "name": "을지로2가 20-2",
      "region": "서울",
      "district": "중구",
      "dong": "",
      "type": "재개발",
      "stage": "도시환경정비사업지구",
      "stage_idx": 0,
      "lat": 37.572879795750154,
      "lng": 126.99117019909923,
      "area_m2": 0,
      "units": 0,
      "contractor": "",
      "stage_date": "",
      "notes": "",
      "subway": "",
      "hangang": false,
      "completion_est": "",
      "ref_note": ""
    },
    {
      "id": "api_2089",
      "name": "을지로2가 18-5",
      "region": "서울",
      "district": "중구",
      "dong": "",
      "type": "재개발",
      "stage": "도시환경정비사업지구",
      "stage_idx": 0,
      "lat": 37.56659303570346,
      "lng": 126.99971997186107,
      "area_m2": 1477,
      "units": 0,
      "contractor": "",
      "stage_date": "",
      "notes": "",
      "subway": "",
      "hangang": false,
      "completion_est": "",
      "ref_note": ""
    },
    {
      "id": "api_2091",
      "name": "신촌지역(마포) 4-15지구 도시정비형 재개발구역",
      "region": "서울",
      "district": "마포구",
      "dong": "",
      "type": "재개발",
      "stage": "도시환경정비사업구역",
      "stage_idx": 0,
      "lat": 37.56907889917792,
      "lng": 126.90095338995954,
      "area_m2": 3258,
      "units": 0,
      "contractor": "",
      "stage_date": "",
      "notes": "",
      "subway": "",
      "hangang": false,
      "completion_est": "",
      "ref_note": ""
    },
    {
      "id": "api_2092",
      "name": "마포로1 도시정비형 재개발구역",
      "region": "서울",
      "district": "마포구",
      "dong": "",
      "type": "재개발",
      "stage": "도시환경정비사업구역",
      "stage_idx": 0,
      "lat": 37.5651952763036,
      "lng": 126.90491638734697,
      "area_m2": 249777,
      "units": 0,
      "contractor": "",
      "stage_date": "",
      "notes": "",
      "subway": "",
      "hangang": false,
      "completion_est": "",
      "ref_note": ""
    },
    {
      "id": "api_2093",
      "name": "마포로1 도시정비형 재개발구역 제28.29지구",
      "region": "서울",
      "district": "마포구",
      "dong": "",
      "type": "재개발",
      "stage": "도시환경정비사업지구",
      "stage_idx": 0,
      "lat": 37.55618646953884,
      "lng": 126.91192311128134,
      "area_m2": 3749,
      "units": 0,
      "contractor": "",
      "stage_date": "",
      "notes": "",
      "subway": "",
      "hangang": false,
      "completion_est": "",
      "ref_note": ""
    },
    {
      "id": "api_2095",
      "name": "을지로3가 도시정비형 재개발구역 제12지구",
      "region": "서울",
      "district": "중구",
      "dong": "",
      "type": "재개발",
      "stage": "재개발사업구역",
      "stage_idx": 0,
      "lat": 37.573720550415935,
      "lng": 126.99872810844484,
      "area_m2": 3924,
      "units": 0,
      "contractor": "",
      "stage_date": "",
      "notes": "",
      "subway": "",
      "hangang": false,
      "completion_est": "",
      "ref_note": ""
    },
    {
      "id": "api_2097",
      "name": "상계주공5단지 재건축정비구역",
      "region": "서울",
      "district": "노원구",
      "dong": "",
      "type": "재건축",
      "stage": "재건축사업구역",
      "stage_idx": 0,
      "lat": 37.65974997852738,
      "lng": 127.06322764478767,
      "area_m2": 0,
      "units": 0,
      "contractor": "",
      "stage_date": "",
      "notes": "",
      "subway": "",
      "hangang": false,
      "completion_est": "",
      "ref_note": ""
    },
    {
      "id": "api_2100",
      "name": "고덕주공3단지아파트 주택재건축 정비구역",
      "region": "서울",
      "district": "강동구",
      "dong": "",
      "type": "재건축",
      "stage": "주택재건축사업",
      "stage_idx": 0,
      "lat": 37.52228616960403,
      "lng": 127.11518845162273,
      "area_m2": 211408,
      "units": 0,
      "contractor": "",
      "stage_date": "",
      "notes": "",
      "subway": "",
      "hangang": false,
      "completion_est": "",
      "ref_note": ""
    },
    {
      "id": "api_2101",
      "name": "마포로1구역 제12.13지구 도시정비형 재개발사업",
      "region": "서울",
      "district": "마포구",
      "dong": "",
      "type": "재개발",
      "stage": "도시환경정비사업구역",
      "stage_idx": 0,
      "lat": 37.561960966394786,
      "lng": 126.90491159107847,
      "area_m2": 2568,
      "units": 0,
      "contractor": "",
      "stage_date": "",
      "notes": "",
      "subway": "",
      "hangang": false,
      "completion_est": "",
      "ref_note": ""
    },
    {
      "id": "api_2102",
      "name": "면목1 역세권 장기전세주택 도시환경정비사업",
      "region": "서울",
      "district": "중랑구",
      "dong": "",
      "type": "재개발",
      "stage": "도시환경정비사업구역",
      "stage_idx": 0,
      "lat": 37.60017088784192,
      "lng": 127.08862716054003,
      "area_m2": 3858,
      "units": 0,
      "contractor": "",
      "stage_date": "",
      "notes": "",
      "subway": "",
      "hangang": false,
      "completion_est": "",
      "ref_note": ""
    },
    {
      "id": "api_2103",
      "name": "송파미성아파트 재건축정비구역",
      "region": "서울",
      "district": "송파구",
      "dong": "",
      "type": "재건축",
      "stage": "설계자선정",
      "stage_idx": 0,
      "lat": 37.51403619492368,
      "lng": 127.10251235906229,
      "area_m2": 0,
      "units": 0,
      "contractor": "",
      "stage_date": "202405",
      "notes": "",
      "subway": "",
      "hangang": false,
      "completion_est": "",
      "ref_note": ""
    },
    {
      "id": "api_2104",
      "name": "사당2 주택재건축 정비사업",
      "region": "서울",
      "district": "동작구",
      "dong": "",
      "type": "재건축",
      "stage": "주택재건축사업",
      "stage_idx": 0,
      "lat": 37.51705047260011,
      "lng": 126.93986640245116,
      "area_m2": 49449,
      "units": 0,
      "contractor": "",
      "stage_date": "",
      "notes": "",
      "subway": "",
      "hangang": false,
      "completion_est": "",
      "ref_note": ""
    },
    {
      "id": "api_2105",
      "name": "신길8재정비촉진구역",
      "region": "서울",
      "district": "영등포구",
      "dong": "",
      "type": "재개발",
      "stage": "주택재개발사업구역",
      "stage_idx": 0,
      "lat": 37.531966601464376,
      "lng": 126.90432199791069,
      "area_m2": 32287,
      "units": 0,
      "contractor": "",
      "stage_date": "",
      "notes": "",
      "subway": "",
      "hangang": false,
      "completion_est": "",
      "ref_note": ""
    },
    {
      "id": "api_2106",
      "name": "가락1차현대아파트 재건축정비사업",
      "region": "서울",
      "district": "송파구",
      "dong": "",
      "type": "재건축",
      "stage": "사업시행인가",
      "stage_idx": 2,
      "lat": 37.521088544839095,
      "lng": 127.09744738699364,
      "area_m2": 33953,
      "units": 0,
      "contractor": "",
      "stage_date": "202501",
      "notes": "",
      "subway": "",
      "hangang": false,
      "completion_est": "",
      "ref_note": ""
    },
    {
      "id": "api_2107",
      "name": "강북2재정비촉진구역",
      "region": "서울",
      "district": "강북구",
      "dong": "",
      "type": "재개발",
      "stage": "도시환경정비사업구역",
      "stage_idx": 0,
      "lat": 37.63516055665684,
      "lng": 127.02629335871949,
      "area_m2": 18958,
      "units": 0,
      "contractor": "",
      "stage_date": "",
      "notes": "",
      "subway": "",
      "hangang": false,
      "completion_est": "",
      "ref_note": ""
    },
    {
      "id": "api_2225",
      "name": "응암제1구역 주택재개발정비사업",
      "region": "서울",
      "district": "은평구",
      "dong": "",
      "type": "재개발",
      "stage": "주택재개발사업지구",
      "stage_idx": 0,
      "lat": 37.610907218866494,
      "lng": 126.9274948541953,
      "area_m2": 43938,
      "units": 0,
      "contractor": "",
      "stage_date": "",
      "notes": "",
      "subway": "",
      "hangang": false,
      "completion_est": "",
      "ref_note": ""
    },
    {
      "id": "api_2226",
      "name": "사당3 재건축 정비사업",
      "region": "서울",
      "district": "동작구",
      "dong": "",
      "type": "재건축",
      "stage": "재건축사업구역",
      "stage_idx": 0,
      "lat": 37.508202964674304,
      "lng": 126.94817628272811,
      "area_m2": 30107,
      "units": 0,
      "contractor": "",
      "stage_date": "",
      "notes": "",
      "subway": "",
      "hangang": false,
      "completion_est": "",
      "ref_note": ""
    },
    {
      "id": "api_2227",
      "name": "마포로1구역 제28.29지구 도시정비형 재개발구역",
      "region": "서울",
      "district": "마포구",
      "dong": "",
      "type": "재개발",
      "stage": "도시환경정비사업구역",
      "stage_idx": 0,
      "lat": 37.568093654087804,
      "lng": 126.90892746258518,
      "area_m2": 3678,
      "units": 0,
      "contractor": "",
      "stage_date": "",
      "notes": "",
      "subway": "",
      "hangang": false,
      "completion_est": "",
      "ref_note": ""
    },
    {
      "id": "api_2228",
      "name": "을지로3가 도시정비형 재개발구역 제9지구",
      "region": "서울",
      "district": "중구",
      "dong": "",
      "type": "재개발",
      "stage": "도시환경정비사업구역",
      "stage_idx": 0,
      "lat": 37.573147285924115,
      "lng": 126.99383131836579,
      "area_m2": 1945,
      "units": 0,
      "contractor": "",
      "stage_date": "",
      "notes": "",
      "subway": "",
      "hangang": false,
      "completion_est": "",
      "ref_note": ""
    },
    {
      "id": "api_2230",
      "name": "신동아1.2차아파트 주택재건축 정비사업",
      "region": "서울",
      "district": "강동구",
      "dong": "",
      "type": "재건축",
      "stage": "주택재건축사업",
      "stage_idx": 0,
      "lat": 37.53181308790172,
      "lng": 127.12285269771567,
      "area_m2": 46267,
      "units": 0,
      "contractor": "",
      "stage_date": "",
      "notes": "",
      "subway": "",
      "hangang": false,
      "completion_est": "",
      "ref_note": ""
    },